City_ID,City,Lat,Lng,Max Temp,Humidity,Cloudiness,Wind Speed,Country,Date
0,birzai,56.2,24.75,35.87,86,6,8.7,LT,1697499774
1,port alfred,-33.5906,26.891,60.19,94,85,8.75,ZA,1697499774
2,yellowknife,62.456,-114.3525,45.41,94,75,8.05,CA,1697499775
3,arraial do cabo,-22.9661,-42.0278,73.36,88,75,18.41,BR,1697499775
4,port-aux-francais,-49.35,70.2167,37.06,90,93,28.45,TF,1697499775
5,puerto colombia,10.9878,-74.9547,80.69,74,38,7.18,CO,1697499775
6,heroica guaymas,27.9333,-110.9,103.89,47,20,13.8,MX,1697499776
7,geraldton,-28.7667,114.6,72.01,78,100,6.91,AU,1697499690
8,petropavlovsk-kamchatsky,53.0452,158.6483,46.99,88,75,17.9,RU,1697499776
9,albany,42.6001,-73.9662,53.46,76,95,2.82,US,1697499776
10,ribeira grande,38.5167,-28.7,66.6,82,20,8.05,PT,1697499777
11,anadyr,64.75,177.4833,28.9,79,20,11.18,RU,1697499777
12,caleta de carquin,-11.0925,-77.6267,67.37,85,66,10.71,PE,1697499777
13,wailua homesteads,22.0669,-159.378,81.39,73,20,10.36,US,1697499777
14,iqaluit,63.7506,-68.5145,19.13,79,20,10.36,CA,1697499591
15,new plymouth,-39.0667,174.0833,61.81,95,100,18.1,NZ,1697499773
16,ushuaia,-54.8,-68.3,46.06,66,75,16.11,AR,1697499618
17,fort bragg,35.139,-79.006,58.82,61,0,5.75,US,1697499778
18,adamstown,-25.066,-130.1015,72.39,81,32,7.81,PN,1697499778
19,lebu,-37.6167,-73.65,51.44,82,0,30.51,CL,1697499610
20,whitehorse,60.7161,-135.0538,36.37,100,100,0.0,CA,1697499778
21,avarua,-21.2078,-159.775,73.45,60,75,13.8,CK,1697499779
22,cacapava do sul,-30.5122,-53.4914,63.82,99,100,3.31,BR,1697499779
23,grytviken,-54.2811,-36.5092,32.58,95,76,10.92,GS,1697499779
24,waitangi,-43.9535,-176.5597,56.07,85,57,30.51,NZ,1697499594
25,euclides da cunha,-10.5075,-39.0158,70.39,67,4,11.3,BR,1697499780
26,cockburn town,21.4612,-71.1419,85.96,70,40,5.75,TC,1697499700
27,guerrero,17.6667,-100.0,70.47,81,89,2.06,MX,1697499780
28,vorgashor,67.5833,63.95,34.72,98,100,9.93,RU,1697499669
29,hawaiian paradise park,19.5933,-154.9731,83.71,76,0,10.36,US,1697499780
30,puerto baquerizo moreno,-0.9,-89.6,74.61,82,87,11.16,EC,1697499781
31,margate,51.3813,1.3862,53.91,70,100,4.0,GB,1697499781
32,timimoun,29.2639,0.231,75.58,16,0,4.61,DZ,1697499781
33,pechora,65.1472,57.2244,40.86,90,100,8.01,RU,1697499781
34,jacmel,18.2342,-72.5347,87.64,93,41,2.26,HT,1697499781
35,malango,-2.9627,119.9001,77.04,67,13,3.18,ID,1697499782
36,hotan,37.0997,79.9269,59.58,22,100,4.18,CN,1697499782
37,minas de marcona,-15.2119,-75.1103,64.89,72,26,6.26,PE,1697499782
38,nouadhibou,20.931,-17.0347,80.58,47,99,16.11,MR,1697499747
39,st. john's,47.5649,-52.7093,48.97,97,100,26.46,CA,1697499782
40,nuuk,64.1835,-51.7216,25.41,68,0,16.11,GL,1697499783
41,yanchep,-31.55,115.6833,82.53,50,0,9.95,AU,1697499783
42,puerto ayacucho,5.6639,-67.6236,79.09,81,63,2.73,VE,1697499783
43,blackmans bay,-43.0167,147.3167,58.73,53,9,2.19,AU,1697499783
44,atafu village,-8.5421,-172.5159,82.47,78,70,15.84,TK,1697499783
45,masterton,-40.9597,175.6575,57.88,99,100,13.96,NZ,1697499784
46,bilibino,68.0546,166.4372,12.96,96,99,3.4,RU,1697499664
47,soe,-9.8607,124.284,79.43,32,73,6.91,ID,1697499784
48,lhasa,29.65,91.1,39.38,66,99,5.12,CN,1697499704
49,tura,25.5198,90.2201,66.22,94,0,4.79,IN,1697499785
50,zhezqazghan,47.7833,67.7667,45.61,54,0,8.97,KZ,1697499785
51,whakatane,-37.9585,176.9854,68.88,86,69,13.11,NZ,1697499785
52,luoyang,34.6836,112.4536,63.12,57,4,3.13,CN,1697499785
53,pingdingshan,33.7385,113.3012,67.42,47,2,2.24,CN,1697499786
54,grojec,51.8625,20.8676,43.36,79,48,9.13,PL,1697499786
55,udachny,66.4167,112.4,25.45,100,99,2.04,RU,1697499728
56,ust-nera,64.5667,143.2,0.21,97,64,3.0,RU,1697499786
57,pisco,-13.7,-76.2167,68.05,83,20,12.66,PE,1697499786
58,margaret river,-33.95,115.0667,67.03,63,79,6.87,AU,1697499593
59,enewetak,11.3474,162.3373,83.95,75,8,14.65,MH,1697499787
60,puerto natales,-51.7236,-72.4875,39.9,96,76,4.27,CL,1697499617
61,edinburgh of the seven seas,-37.0676,-12.3116,54.18,68,8,6.78,SH,1697499787
62,olonets,60.9847,32.9698,40.53,84,100,8.48,RU,1697499788
63,chonchi,-42.6128,-73.8092,49.21,91,6,4.23,CL,1697499760
64,edwards,39.645,-106.5942,69.03,36,0,1.99,US,1697499788
65,bredasdorp,-34.5322,20.0403,57.04,93,16,5.19,ZA,1697499788
66,alofi,-19.0595,-169.9187,78.69,69,75,23.02,NU,1697499788
67,puerto ayora,-0.7393,-90.3518,76.55,92,83,5.01,EC,1697499789
68,pangai,-19.8,-174.35,80.71,65,20,17.27,TO,1697499789
69,carnarvon,-24.8667,113.6333,74.39,64,0,14.58,AU,1697499789
70,luderitz,-26.6481,15.1594,58.12,79,0,14.72,NA,1697499789
71,kodiak,57.79,-152.4072,47.71,93,100,8.05,US,1697499790
72,isafjordur,66.0755,-23.124,31.8,82,100,7.4,IS,1697499790
73,vila franca do campo,37.7167,-25.4333,68.88,99,98,10.22,PT,1697499790
74,ruidoso,33.3317,-105.673,67.26,24,0,4.61,US,1697499790
75,college,64.8569,-147.8028,45.09,74,75,3.44,US,1697499791
76,hithadhoo,-0.6,73.0833,80.51,73,56,17.27,MV,1697499791
77,kristiansund,63.1115,7.732,47.05,87,100,8.05,NO,1697499791
78,remire-montjoly,4.9167,-52.2667,82.44,83,0,3.44,GF,1697499791
79,port elizabeth,-33.918,25.5701,62.89,92,75,11.5,ZA,1697499598
80,talnakh,69.4865,88.3972,29.21,95,100,4.65,RU,1697499792
81,olonkinbyen,70.9221,-8.7187,33.12,92,100,19.15,SJ,1697499596
82,afaahiti,-17.75,-149.2833,82.27,84,74,14.23,PF,1697499792
83,praia da vitoria,38.7333,-27.0667,67.75,88,40,11.81,PT,1697499695
84,qaqortoq,60.7167,-46.0333,33.8,93,100,2.24,GL,1697499731
85,katsuura,35.1333,140.3,69.15,69,0,6.24,JP,1697499792
86,tamandare,-8.7597,-35.1047,72.32,86,68,3.78,BR,1697499793
87,punta arenas,-53.15,-70.9167,48.31,57,75,26.46,CL,1697499793
88,tezu,27.9167,96.1667,67.35,67,20,3.33,IN,1697499793
89,hanzhong,33.0728,107.0303,62.24,82,100,1.88,CN,1697499793
90,callao,-12.0667,-77.15,69.71,77,100,8.05,PE,1697499645
91,ambon,-3.6954,128.1814,85.91,100,40,5.75,ID,1697499794
92,hobyo,5.3505,48.5268,80.83,79,91,7.83,SO,1697499794
93,bodaybo,57.8506,114.1933,40.48,97,100,3.0,RU,1697499794
94,shubarshi,48.5872,57.1869,46.0,67,0,10.18,KZ,1697499717
95,shahrak,34.1074,64.3052,37.45,46,0,3.31,AF,1697499795
96,papatowai,-46.5619,169.4708,50.58,45,91,6.58,NZ,1697499795
97,thompson,55.7435,-97.8558,50.16,76,75,2.3,CA,1697499795
98,cidreira,-30.1811,-50.2056,67.35,97,100,7.52,BR,1697499795
99,lompoc,34.6391,-120.4579,80.02,73,75,20.0,US,1697499796
100,port mathurin,-19.6833,63.4167,75.47,85,3,6.71,MU,1697499796
101,ancud,-41.8697,-73.8203,49.95,79,3,5.55,CL,1697499796
102,legnago,45.1832,11.3091,56.95,62,100,5.01,IT,1697499796
103,longyearbyen,78.2186,15.6401,22.84,63,20,9.22,SJ,1697499499
104,itai,-23.4178,-49.0906,73.49,74,75,8.16,BR,1697499512
105,ronneburg,50.8667,12.1833,41.14,94,100,0.89,DE,1697499797
106,zhukovka,53.534,33.728,37.83,83,71,12.86,RU,1697499797
107,west island,-12.1568,96.8225,78.78,89,75,13.8,CC,1697499797
108,ape,57.5393,26.6929,34.72,84,55,8.81,LV,1697499798
109,nar'yan-mar,67.6713,53.087,39.11,93,98,13.0,RU,1697499624
110,georgievka,49.3314,81.5761,38.95,74,15,6.78,KZ,1697499798
111,constantia,44.1833,28.65,41.7,56,16,4.79,RO,1697499798
112,morehead city,34.7229,-76.726,59.99,75,0,4.61,US,1697499739
113,mme-bafumen,6.3333,10.2333,61.03,94,100,3.0,CM,1697499799
114,yarovoye,52.9273,78.58,47.14,81,99,8.01,RU,1697499799
115,fillmore,43.6666,-92.1002,54.82,76,0,3.44,US,1697499799
116,zeya,53.75,127.2667,28.49,52,14,1.34,RU,1697499799
117,terra boa,-23.7681,-52.4442,81.86,49,66,4.61,BR,1697499799
118,port saint john's,-31.6229,29.5448,61.38,94,100,1.92,ZA,1697499800
119,navlya,52.8281,34.4989,37.6,83,43,10.58,RU,1697499800
120,kimbe,-5.5502,150.1429,85.01,64,100,3.04,PG,1697499800
121,acarau,-2.8856,-40.12,80.02,77,4,15.66,BR,1697499800
122,bethel,41.3712,-73.414,55.94,77,75,0.0,US,1697499552
123,madan,41.5,24.95,41.77,67,99,2.48,BG,1697499801
124,onega,63.9061,38.1404,39.74,78,100,15.01,RU,1697499801
125,betio village,1.358,172.9211,86.04,79,100,15.3,KI,1697499801
126,la passe,45.5549,-0.8967,59.23,59,100,11.34,FR,1697499801
127,ilulissat,69.2167,-51.1,17.62,79,100,24.16,GL,1697499802
128,stanley,54.868,-1.6985,33.78,100,0,2.3,GB,1697499802
129,badger,64.8,-147.5333,45.0,63,75,3.44,US,1697499802
130,santa ana,33.7456,-117.8678,95.36,51,20,8.05,US,1697499802
131,abepura,-2.6333,140.5833,83.21,70,20,3.44,ID,1697499803
132,iskateley,67.6803,53.1512,39.02,93,100,13.0,RU,1697499803
133,mont-dore,-22.2833,166.5833,80.58,77,98,0.58,NC,1697499803
134,pontes e lacerda,-15.2261,-59.3353,81.41,61,74,4.34,BR,1697499803
135,gorodishche,48.8045,44.4744,49.08,87,75,26.84,RU,1697499804
136,kingston,17.997,-76.7936,86.95,81,20,6.91,JM,1697499597
137,guerrero negro,27.9769,-114.0611,70.97,80,24,15.75,MX,1697499804
138,chapada dos guimaraes,-15.4606,-55.7497,83.86,33,78,4.18,BR,1697499804
139,loen,7.7601,168.2307,83.93,73,15,12.86,MH,1697499804
140,broken hill,-31.95,141.4333,60.6,34,0,14.58,AU,1697499805
141,labytnangi,66.6572,66.4183,33.13,98,100,3.69,RU,1697499805
142,fisterra,42.9049,-9.2629,69.75,73,98,29.04,ES,1697499805
143,khandud,36.9513,72.318,37.72,95,100,1.14,AF,1697499805
144,shimokizukuri,40.8061,140.3861,59.95,49,95,24.11,JP,1697499805
145,wynyard,-41.0,145.7167,52.47,54,0,5.97,AU,1697499806
146,tiksi,71.6872,128.8694,8.19,93,95,6.89,RU,1697499806
147,jamestown,42.097,-79.2353,48.56,98,100,5.75,US,1697499754
148,mount isa,-20.7333,139.5,80.37,21,3,17.27,AU,1697499806
149,la ronge,55.1001,-105.2842,61.02,47,20,4.61,CA,1697499807
150,hamilton,39.1834,-84.5333,53.78,81,100,5.75,US,1697499807
151,sawakin,19.1059,37.3321,82.04,68,3,7.63,SD,1697499807
152,odda,60.0691,6.5457,50.77,100,100,5.59,NO,1697499807
153,hernando,28.5419,-82.4582,65.03,69,0,8.05,US,1697499807
154,pokhara,28.2333,83.9833,62.76,66,99,4.74,NP,1697499808
155,sitka,57.0531,-135.33,58.89,58,75,17.27,US,1697499808
156,utrik,11.2278,169.8474,83.05,74,40,15.88,MH,1697499808
157,flying fish cove,-10.4217,105.6791,78.48,94,100,10.36,CX,1697499808
158,okha,53.5739,142.9478,46.18,84,96,15.41,RU,1697499809
159,hirara,24.8,125.2833,77.27,61,75,11.5,JP,1697499809
160,uzgen,40.7699,73.3007,44.89,34,95,4.27,KG,1697499809
161,brookings,44.3114,-96.7984,57.54,51,0,6.91,US,1697499543
162,hermanus,-34.4187,19.2345,59.27,91,24,10.58,ZA,1697499810
163,palmer,42.1584,-72.3287,52.25,81,75,8.05,US,1697499775
164,elliot lake,46.3834,-82.6331,43.23,75,0,5.91,CA,1697499810
165,east london,-33.0153,27.9116,61.05,88,88,8.57,ZA,1697499810
166,namibe,-15.1961,12.1522,63.99,83,56,5.44,AO,1697499811
167,adrian,41.8975,-84.0372,51.93,79,100,5.75,US,1697499786
168,mejit,10.2753,170.8646,82.87,74,43,15.48,MH,1697499766
169,saint-philippe,-21.3585,55.7679,72.99,91,83,2.26,RE,1697499811
170,uturoa,-16.7333,-151.4333,78.8,77,58,13.58,PF,1697499812
171,revda,56.801,59.9303,45.34,81,11,7.99,RU,1697499777
172,iquique,-20.2208,-70.1431,66.24,85,50,3.58,CL,1697499812
173,beloyarskiy,63.7119,66.6722,41.0,91,92,5.01,RU,1697499812
174,alamos,27.0167,-108.9333,96.8,24,1,9.04,MX,1697499812
175,selfoss,63.9331,-20.9971,38.05,86,100,3.8,IS,1697499813
176,lulea,65.5842,22.1547,33.87,86,51,8.05,SE,1697499813
177,pemangkat,1.1667,108.9667,79.3,88,100,5.68,ID,1697499813
178,babol,36.5513,52.679,64.13,82,44,5.61,IR,1697499813
179,mount pearl,47.5166,-52.7813,48.15,97,100,26.46,CA,1697499813
180,saipan,15.1355,145.701,83.1,83,20,9.22,MP,1697499814
181,berezanskaya,45.7056,39.5932,53.76,69,68,8.28,RU,1697499814
182,kukmor,56.1855,50.8944,53.56,52,98,17.63,RU,1697499814
183,prince rupert,54.3161,-130.3201,55.49,97,100,21.85,CA,1697499814
184,krasnovishersk,60.4078,57.082,51.55,87,99,12.15,RU,1697499815
185,puerto madryn,-42.7692,-65.0385,53.4,48,27,11.97,AR,1697499815
186,lindsay,36.203,-119.0882,86.77,28,0,8.05,US,1697499815
187,aykhal,66.0,111.5,25.07,94,100,11.01,RU,1697499815
188,sinabang,2.4803,96.3801,76.46,90,100,6.91,ID,1697499647
189,kailua-kona,19.6406,-155.9956,84.16,78,20,11.5,US,1697499715
190,gaspe,48.8334,-64.4819,48.11,81,40,3.44,CA,1697499816
191,seguela,7.9611,-6.6731,70.68,97,89,5.23,CI,1697499816
192,vinales,22.6164,-83.7078,75.94,60,75,11.54,CU,1697499816
193,vernal,40.4555,-109.5287,69.51,29,0,4.61,US,1697499719
194,bengkulu,-3.8004,102.2655,74.28,90,27,3.33,ID,1697499817
195,kihei,20.785,-156.4656,86.02,72,20,23.02,US,1697499817
196,alice springs,-23.7,133.8833,69.35,26,0,14.97,AU,1697499524
197,homer,59.6425,-151.5483,51.69,76,75,3.44,US,1697499659
198,nagqu,31.5,92.0,30.52,47,100,3.85,CN,1697499818
199,benghazi,32.1167,20.0667,75.79,69,0,6.62,LY,1697499818
200,soure,-0.7167,-48.5233,81.64,79,62,15.9,BR,1697499592
201,singaraja,-8.112,115.0882,83.19,61,69,0.6,ID,1697499818
202,muncar,-8.4333,114.3333,80.89,74,67,3.31,ID,1697499818
203,tamanrasset,22.785,5.5228,67.91,21,0,6.91,DZ,1697499819
204,ormara,25.2088,64.6357,79.32,83,37,11.32,PK,1697499819
205,kapuskasing,49.4169,-82.4331,42.8,75,20,3.44,CA,1697499819
206,invercargill,-46.4,168.35,52.02,60,73,11.99,NZ,1697499819
207,gannan,47.9147,123.5031,42.96,36,71,7.31,CN,1697499820
208,embi,48.8264,58.1442,45.99,68,0,9.51,KZ,1697499820
209,nadym,65.5333,72.5167,34.43,98,100,6.11,RU,1697499820
210,salekhard,66.53,66.6019,32.25,95,100,5.35,RU,1697499820
211,lospalos,-8.5186,127.0025,79.75,57,74,9.31,TL,1697499820
212,kolonia,50.9333,6.95,46.85,87,0,4.61,DE,1697499703
213,dutsin-ma,12.4517,7.4981,80.4,28,97,5.48,NG,1697499821
214,bucerias,20.75,-105.3333,87.78,74,75,9.22,MX,1697499821
215,puerto el triunfo,13.2833,-88.55,77.59,96,100,2.53,SV,1697499821
216,wuhai,39.6647,106.8122,54.12,27,82,6.93,CN,1697499821
217,veraval,20.9,70.3667,77.63,78,4,10.98,IN,1697499822
218,kuybyshev,55.4475,78.3218,46.67,90,96,5.88,RU,1697499822
219,laguna,38.421,-121.4238,83.17,47,0,10.36,US,1697499822
220,auki,-8.7676,160.7034,81.16,77,100,4.5,SB,1697499822
221,wamba,8.9333,8.6,73.69,95,94,2.62,NG,1697499823
222,turkmenbasy,40.0222,52.9552,65.17,59,75,3.6,TM,1697499823
223,tazovsky,67.4667,78.7,33.22,82,97,6.11,RU,1697499823
224,kindu,-2.95,25.95,68.86,98,79,2.93,CD,1697499823
225,coahuayana de hidalgo,18.7,-103.6583,79.52,93,79,4.97,MX,1697499824
226,sharm el-sheikh,27.8518,34.305,80.74,36,0,16.11,EG,1697499824
227,baikunthpur,23.25,82.55,67.86,74,5,1.43,IN,1697499824
228,owen sound,44.5672,-80.9435,48.88,83,0,8.01,CA,1697499639
229,mukalla,14.5425,49.1242,78.21,79,2,4.29,YE,1697499803
230,codrington,-38.2667,141.9667,56.82,56,0,3.76,AU,1697499723
231,erwin,36.1451,-82.4168,49.48,90,100,6.42,US,1697499825
232,yibin,28.7667,104.6238,68.16,86,100,1.52,CN,1697499825
233,canubing no 2,13.35,121.1333,82.09,84,85,4.59,PH,1697499825
234,sola,-13.8833,167.55,78.8,83,67,18.21,VU,1697499826
235,rongelap,11.1635,166.8941,83.53,76,81,18.75,MH,1697499826
236,colonia,50.9333,6.95,46.85,87,0,4.61,DE,1697499721
237,dalandzadgad,43.5708,104.425,41.32,37,100,5.1,MN,1697499788
238,georgetown,5.4112,100.3354,81.95,84,20,3.44,MY,1697499826
239,lihue,21.9789,-159.3672,81.99,72,20,10.36,US,1697499827
240,shache,38.4167,77.2406,60.17,29,100,3.71,CN,1697499827
241,thinadhoo,0.5333,72.9333,81.28,73,42,16.15,MV,1697499827
242,briancon,44.9,6.65,42.62,92,56,2.59,FR,1697499827
243,inhambane,-23.865,35.3833,69.24,90,100,6.06,MZ,1697499828
244,tolanaro,-25.0319,46.9987,73.47,83,75,6.91,MG,1697499609
245,vanimo,-2.6741,141.3028,82.0,73,95,5.06,PG,1697499828
246,portland,45.5234,-122.6762,65.21,93,100,6.91,US,1697499661
247,quiindy,-25.9667,-57.2667,89.65,33,21,5.73,PY,1697499828
248,rojhan,28.6868,69.9534,72.93,57,52,27.0,PK,1697499829
249,wajir,1.7471,40.0573,80.38,68,98,14.63,KE,1697499829
250,naze,28.3667,129.4833,72.52,54,0,10.29,JP,1697499829
251,jumla,29.2747,82.1838,46.33,78,100,4.63,NP,1697499829
252,port augusta,-32.5,137.7667,65.28,32,0,6.71,AU,1697499830
253,dankalwa,11.7443,12.1867,80.22,62,88,7.29,NG,1697499830
254,san antonio de pale,-1.4014,5.6325,77.81,82,100,11.16,GQ,1697499830
255,champerico,14.3,-91.9167,79.34,97,96,3.36,GT,1697499830
256,qurayyat,31.3318,37.3428,62.78,67,0,6.91,SA,1697499830
257,kargil,34.5667,76.1,35.19,70,100,4.61,IN,1697499831
258,slave lake,55.2834,-114.769,58.98,51,40,10.36,CA,1697499831
259,nantucket,41.2835,-70.0995,55.51,76,100,6.91,US,1697499534
260,lagrange,33.0393,-85.0313,56.07,62,100,8.05,US,1697499664
261,altay,47.8667,88.1167,33.55,46,7,8.3,CN,1697499831
262,ubari,26.5921,12.7805,71.55,20,0,5.64,LY,1697499832
263,visakhapatnam,17.69,83.2093,72.7,78,72,2.24,IN,1697499832
264,hats'avan,39.4641,45.9705,46.15,85,19,4.81,AM,1697499832
265,sayat,38.7839,63.8803,44.47,28,0,7.65,TM,1697499832
266,coquimbo,-29.9533,-71.3436,58.73,82,0,9.22,CL,1697499603
267,dudinka,69.4058,86.1778,31.68,98,100,5.99,RU,1697499833
268,aksu,41.1231,80.2644,53.64,37,24,7.27,CN,1697499833
269,puerto armuelles,8.2833,-82.8667,82.17,78,99,7.0,PA,1697499833
270,hami,42.8,93.45,49.37,45,99,6.53,CN,1697499753
271,aktobe,50.2797,57.2072,39.29,87,0,8.95,KZ,1697499833
272,mata-utu,-13.2816,-176.1745,81.18,79,44,22.79,WF,1697499834
273,haiku-pauwela,20.9219,-156.3051,84.22,58,20,23.02,US,1697499834
274,kete krachi,7.7939,-0.0498,75.13,92,86,6.85,GH,1697499834
275,the pas,53.8251,-101.2541,57.22,58,0,5.75,CA,1697499834
276,saint-joseph,-21.3667,55.6167,71.98,95,67,3.09,RE,1697499835
277,mana,5.6592,-53.7767,81.68,83,40,9.24,GF,1697499835
278,carutapera,-1.195,-46.02,78.76,81,69,7.14,BR,1697499835
279,manaure,11.7751,-72.4445,84.63,82,10,15.21,CO,1697499835
280,oyama,36.3,139.8,68.59,59,0,3.47,JP,1697499835
281,nova sintra,14.8667,-24.7167,78.15,71,68,12.88,CV,1697499836
282,igarka,67.4667,86.5833,30.78,97,100,6.89,RU,1697499836
283,borogontsy,62.6683,131.1683,22.28,62,99,1.01,RU,1697499836
284,chengde,40.9725,117.9361,51.39,48,34,1.3,CN,1697499679
285,san patricio,28.017,-97.5169,75.54,39,0,6.73,US,1697499837
286,nha trang,12.25,109.1833,77.0,83,96,4.5,VN,1697499837
287,daru,-9.0763,143.2092,84.29,65,39,8.34,PG,1697499837
288,kambove,-10.8764,26.5969,67.35,81,98,4.99,CD,1697499837
289,linxia chengguanzhen,35.6003,103.2064,42.94,90,100,3.29,CN,1697499838
290,lerwick,60.1545,-1.1494,51.8,87,100,19.95,GB,1697499816
291,egilsstadir,65.2653,-14.3948,33.71,100,100,3.44,IS,1697499838
292,kerikeri,-35.2268,173.9474,63.91,92,21,11.12,NZ,1697499838
293,gallatin,45.6666,-111.2008,69.01,52,0,3.44,US,1697499834
294,madera,37.1666,-119.8343,85.08,30,65,11.05,US,1697499839
295,koratla,18.8167,78.7167,70.56,76,50,2.66,IN,1697499839
296,dabeiba,7.0017,-76.2672,73.15,96,100,2.66,CO,1697499839
297,gargalianoi,37.0667,21.6333,68.36,72,85,1.66,GR,1697499839
298,ash shatrah,31.4117,46.1742,75.27,36,0,8.3,IQ,1697499839
299,boa vista,2.8197,-60.6733,85.98,66,20,4.61,BR,1697499840
300,gorontalo,0.5412,123.0595,86.58,61,79,1.61,ID,1697499840
301,jimenez,28.3333,-105.4,78.89,29,0,8.97,MX,1697499840
302,mugia,43.1041,-9.2179,69.91,70,91,25.88,ES,1697499841
303,xiva,41.3783,60.3639,40.98,29,0,11.1,UZ,1697499841
304,kapa'a,22.0752,-159.319,82.72,73,20,10.36,US,1697499841
305,vytegra,61.0064,36.4481,40.35,79,89,13.0,RU,1697499841
306,vila velha,-20.3297,-40.2925,76.95,91,40,7.0,BR,1697499703
307,machico,32.7,-16.7667,77.72,80,20,6.91,PT,1697499842
308,poyang,28.9924,116.6675,66.27,68,0,7.23,CN,1697499842
309,bandarbeyla,9.4942,50.8122,79.41,83,14,4.16,SO,1697499701
310,new norfolk,-42.7826,147.0587,59.92,41,12,4.05,AU,1697499842
311,taroa,8.7058,171.2275,83.1,73,76,10.56,MH,1697499843
312,ocean city,39.2776,-74.5746,57.97,79,62,3.0,US,1697499677
313,nova vicosa,-17.8919,-39.3719,74.55,79,1,6.85,BR,1697499843
314,ola,59.5833,151.2833,39.15,93,100,6.2,RU,1697499843
315,marsh harbour,26.5412,-77.0636,74.08,65,75,23.78,BS,1697499844
316,childress,34.4264,-100.204,68.25,30,0,4.61,US,1697499844
317,saint-paul-les-dax,43.7272,-1.0516,65.35,83,100,4.61,FR,1697499844
318,urucara,-2.5364,-57.76,85.24,50,59,2.89,BR,1697499565
319,bolnisi,41.4479,44.5384,60.39,69,62,7.9,GE,1697499845
320,el calafate,-50.3408,-72.2768,43.92,72,64,11.77,AR,1697499845
321,sulecin,52.4443,15.1168,40.05,89,56,3.6,PL,1697499845
322,crane,31.3974,-102.3501,69.8,32,0,6.85,US,1697499690
323,yinchuan,38.4681,106.2731,59.2,41,100,2.93,CN,1697499845
324,zuunmod,47.7069,106.9528,20.43,93,29,5.88,MN,1697499846
325,westport,41.1415,-73.3579,58.17,74,75,4.61,US,1697499846
326,cold springs,39.6802,-119.9766,73.09,22,0,10.36,US,1697499846
327,north bend,43.4065,-124.2243,65.91,94,100,10.36,US,1697499846
328,boli,45.7667,130.5167,43.34,31,0,11.34,CN,1697499847
329,mabai,23.0128,104.4508,57.97,93,33,0.76,CN,1697499847
330,manta,-0.95,-80.7333,78.58,78,75,10.36,EC,1697499847
331,howrah,22.5892,88.3103,78.8,89,20,0.0,IN,1697499699
332,dinar,38.065,30.1656,49.96,76,10,5.37,TR,1697499848
333,lata,40.1629,-8.3327,73.08,77,97,15.05,PT,1697499848
334,yokadouma,3.5167,15.05,68.47,99,73,1.5,CM,1697499848
335,kamen'-na-obi,53.7884,81.3423,49.26,70,100,9.95,RU,1697499848
336,saint-pierre,-21.3393,55.4781,73.08,83,100,2.3,RE,1697499848
337,santa cruz das palmeiras,-21.8269,-47.2486,78.13,69,40,2.3,BR,1697499849
338,mandera,3.9366,41.867,77.81,73,100,10.27,KE,1697499849
339,katabu,-4.9333,122.5167,85.23,54,58,8.37,ID,1697499849
340,badr hunayn,23.7829,38.7905,80.49,51,0,5.26,SA,1697499849
341,ussel,45.55,2.3167,56.88,69,82,4.36,FR,1697499850
342,malpe,13.35,74.7167,76.3,80,100,10.22,IN,1697499850
343,castel di sangro,41.7737,14.1035,53.04,97,100,4.25,IT,1697499850
344,smidovich,48.6,133.8167,40.6,55,13,9.19,RU,1697499850
345,fortuna,40.5982,-124.1573,67.93,96,75,3.0,US,1697499850
346,alaghsas,17.0187,8.0168,84.22,19,6,12.57,NE,1697499851
347,bochum,51.4833,7.2167,46.36,82,97,4.18,DE,1697499851
348,aragarcas,-15.8975,-52.2508,87.21,34,6,4.0,BR,1697499600
349,san nicolas de los arroyos,-33.3358,-60.2252,73.06,63,44,11.83,AR,1697499851
350,agat village,13.3886,144.6585,86.36,79,40,9.22,GU,1697499851
351,totskoye,52.5248,52.7623,49.89,53,29,16.91,RU,1697499852
352,zweibrucken,49.25,7.3667,44.74,79,0,10.36,DE,1697499852
353,taoudenni,22.6783,-3.9836,86.4,16,99,7.23,ML,1697499852
354,porto novo,6.4965,2.6036,82.22,86,93,7.07,BJ,1697499853
355,vuokatti,64.146,28.2697,35.46,97,100,8.55,FI,1697499853
356,newman,37.3138,-121.0208,82.29,47,100,5.01,US,1697499853
357,zaragoza,41.6561,-0.8773,66.02,74,0,6.91,ES,1697499853
358,qusmuryn,52.4503,64.6311,49.12,73,15,8.03,KZ,1697499854
359,tulun,54.5611,100.5792,35.29,94,100,6.6,RU,1697499854
360,matoury,4.8483,-52.3317,82.36,83,0,3.44,GF,1697499854
361,gadzhiyevo,69.2551,33.3362,38.1,76,100,26.87,RU,1697499854
362,tara,56.8944,74.371,49.98,85,78,8.01,RU,1697499854
363,senanga,-16.1167,23.2667,76.93,45,98,4.5,ZM,1697499855
364,cova figueira,14.8905,-24.2934,79.2,65,75,9.06,CV,1697499855
365,sao martinho,39.5144,-9.1311,73.89,84,84,15.01,PT,1697499855
366,klyuchi,52.2667,79.1667,48.6,71,100,8.63,RU,1697499591
367,waingapu,-9.6567,120.2641,82.83,59,13,6.38,ID,1697499855
368,rio grande,-32.035,-52.0986,68.11,96,93,9.06,BR,1697499856
369,shelbyville,35.4834,-86.4603,52.36,54,100,5.75,US,1697499856
370,igrim,63.1906,64.4162,43.02,87,100,5.99,RU,1697499856
371,queenstown,-31.8976,26.8753,50.2,93,96,5.35,ZA,1697499856
372,velyka lepetykha,47.1757,33.9436,47.61,67,34,15.1,UA,1697499857
373,aasiaat,68.7098,-52.8699,12.92,98,97,9.08,GL,1697499857
374,maranding,7.9248,123.7715,83.79,72,47,1.63,PH,1697499857
375,ocos,14.5094,-92.1933,78.98,86,90,3.85,GT,1697499857
376,kawambwa,-9.7915,29.0791,70.9,72,100,5.88,ZM,1697499857
377,pariaman,-0.619,100.12,75.25,86,100,4.03,ID,1697499858
378,kas,36.2018,29.6377,70.86,56,0,3.49,TR,1697499858
379,tual,-5.6667,132.75,80.17,81,59,8.9,ID,1697499858
380,wuda,39.4994,106.7117,54.3,24,100,7.56,CN,1697499858
381,buta,2.7858,24.73,69.3,99,96,1.99,CD,1697499859
382,taro,-8.3862,115.28,73.4,59,56,2.59,ID,1697499859
383,keflavik,64.0049,-22.5624,41.43,87,100,6.91,IS,1697499859
384,ulladulla,-35.35,150.4667,59.77,52,97,7.96,AU,1697499859
385,makoua,0.0069,15.6333,71.65,98,100,1.43,CG,1697499860
386,sandakan,5.8402,118.1179,76.68,94,20,5.99,MY,1697499860
387,port isabel,26.0734,-97.2086,73.49,58,0,13.0,US,1697499860
388,vilyuchinsk,52.9306,158.4028,48.47,90,100,26.44,RU,1697499598
389,skeldon,5.8833,-57.1333,80.06,77,85,6.49,GY,1697499861
390,arklow,52.7931,-6.1414,51.71,84,100,11.72,IE,1697499861
391,formosa do rio preto,-11.0483,-45.1931,75.34,26,6,3.27,BR,1697499861
392,fort saskatchewan,53.7168,-113.2187,61.02,52,100,3.44,CA,1697499861
393,tecpan de galeana,17.25,-100.6833,75.7,95,99,5.66,MX,1697499862
394,cabo san lucas,22.8909,-109.9124,89.91,66,0,6.91,MX,1697499714
395,kuching,1.55,110.3333,82.02,92,40,1.99,MY,1697499862
396,samsat,37.5819,38.4742,63.64,43,32,3.58,TR,1697499862
397,xichang,27.8964,102.2634,58.48,87,88,1.03,CN,1697499862
398,thurso,58.5927,-3.5259,51.85,73,94,21.03,GB,1697499863
399,kenai,60.5544,-151.2583,48.09,66,40,19.57,US,1697499863
400,mogocha,53.7333,119.7667,33.75,48,76,1.99,RU,1697499863
401,la'ie,21.6477,-157.9253,89.06,69,88,5.01,US,1697499790
402,luena,-11.7833,19.9167,69.98,83,0,4.61,AO,1697499864
403,los lunas,34.8062,-106.7334,78.48,28,0,6.06,US,1697499605
404,kruisfontein,-34.0033,24.7314,55.08,93,1,6.02,ZA,1697499864
405,dhulikhel,27.6189,85.5529,57.38,88,58,3.4,NP,1697499864
406,luanda,-8.8368,13.2343,77.0,83,75,6.91,AO,1697499864
407,stony plain,53.5334,-114.0021,60.91,55,20,5.75,CA,1697499865
408,quellon,-43.1167,-73.6167,43.25,90,4,5.73,CL,1697499773
409,phu kradueng,16.8843,101.8847,72.64,90,95,2.21,TH,1697499865
410,nizhniy ingash,56.2,96.53,37.78,96,100,14.16,RU,1697499865
411,wakkanai,45.4094,141.6739,40.98,87,75,13.8,JP,1697499865
412,sarina,-21.4333,149.2167,88.27,34,2,9.51,AU,1697499866
413,gandajika,-6.75,23.95,69.73,83,65,0.98,CD,1697499866
414,dunedin,-45.8742,170.5036,52.81,63,67,1.99,NZ,1697499819
415,peace river,56.2501,-117.286,59.31,54,100,11.5,CA,1697499639
416,ajdabiya,30.7554,20.2263,75.09,71,0,5.82,LY,1697499866
417,inirida,3.8653,-67.9239,73.58,91,92,1.48,CO,1697499867
418,jaicos,-7.3592,-41.1378,81.99,24,3,5.68,BR,1697499867
419,grand falls-windsor,48.9332,-55.6649,41.5,92,100,11.01,CA,1697499867
420,yaounde,3.8667,11.5167,67.93,100,96,1.97,CM,1697499867
421,zyryanskoye,56.8306,86.6258,45.59,83,100,14.32,RU,1697499867
422,touros,-5.1989,-35.4608,77.59,75,46,19.44,BR,1697499709
423,narrabri,-30.3167,149.7833,66.52,32,0,10.0,AU,1697499868
424,ketchikan,55.3422,-131.6461,57.18,94,75,11.5,US,1697499868
425,kyshtovka,56.555,76.6271,44.35,67,76,13.0,RU,1697499868
426,raja,8.4596,25.678,69.03,98,100,3.49,SS,1697499869
427,sur,22.5667,59.5289,80.73,71,0,11.14,OM,1697499869
428,swakopmund,-22.6833,14.5333,56.25,87,6,3.0,NA,1697499869
429,kuruman,-27.4524,23.4325,57.99,48,0,14.43,ZA,1697499869
430,kulhudhuffushi,6.6221,73.07,82.78,73,68,14.14,MV,1697499869
431,amursk,50.2261,136.8994,36.99,83,100,7.47,RU,1697499870
432,pitea,65.3172,21.4794,33.89,93,34,7.43,SE,1697499870
433,rundu,-17.9333,19.7667,73.26,17,68,6.42,NA,1697499870
434,darwin,-12.4611,130.8418,86.9,66,20,1.14,AU,1697499870
435,qamdo,31.1667,97.2333,33.17,62,96,2.37,CN,1697499870
436,torres,-29.3353,-49.7269,69.85,95,100,13.62,BR,1697499871
437,tromso,69.6496,18.957,33.82,80,20,3.44,NO,1697499871
438,dali,25.7,100.1833,53.65,82,0,1.99,CN,1697499735
439,huangshan,29.7114,118.3125,63.93,73,0,1.99,CN,1697499872
440,mattanur,11.9167,75.5833,73.53,98,100,1.41,IN,1697499872
441,castillos,-34.1667,-53.8333,61.18,98,63,5.37,UY,1697499872
442,ghat,24.9647,10.1728,76.68,20,8,5.19,LY,1697499872
443,hammerfest,70.6634,23.6821,34.25,86,100,8.05,NO,1697499872
444,lijiang,26.8688,100.2207,46.6,87,0,3.69,CN,1697499795
445,mahibadhoo,3.7833,72.9667,82.31,78,28,15.66,MV,1697499873
446,dolores,-36.3132,-57.6792,55.08,89,61,7.34,AR,1697499873
447,sylva,58.0348,56.7635,49.37,78,10,8.97,RU,1697499873
448,kijang,35.2442,129.2139,53.33,40,0,4.12,KR,1697499873
449,ad dawadimi,24.5077,44.3924,74.55,18,1,7.83,SA,1697499874
450,togur,58.3631,82.8265,45.14,65,100,11.01,RU,1697499874
451,huai'an,33.5886,119.0192,64.11,74,0,7.11,CN,1697499874
452,najran,17.4924,44.1277,66.85,21,3,3.09,SA,1697499875
453,ust-tsilma,65.441,52.1498,37.62,89,100,5.99,RU,1697499875
454,fale old settlement,-9.3852,-171.2468,83.75,77,88,18.95,TK,1697499875
455,port douglas,-16.4833,145.4667,77.74,56,48,5.23,AU,1697499875
456,belmonte,-15.8631,-38.8828,73.76,79,0,5.32,BR,1697499875
457,ghanzi,-21.5667,21.7833,64.96,22,0,13.0,BW,1697499876
458,arteche,12.2645,125.4048,83.55,72,91,4.0,PH,1697499876
459,bamiantong,44.9333,130.5333,41.97,36,0,8.5,CN,1697499876
460,talodi,10.6325,30.3797,73.6,85,99,4.05,SD,1697499876
461,tidjikja,18.5564,-11.4271,83.16,14,14,6.89,MR,1697499876
462,palghat,10.7833,76.65,74.37,99,100,2.51,IN,1697499877
463,mount gambier,-37.8333,140.7667,58.14,52,44,3.33,AU,1697499808
464,moranbah,-22.0016,148.0466,86.85,23,3,12.1,AU,1697499877
465,nago,26.5881,127.9761,72.03,56,11,14.54,JP,1697499877
466,ziway,7.9333,38.7167,64.47,48,98,6.49,ET,1697499877
467,funafuti,-8.5243,179.1942,89.6,84,75,11.5,TV,1697499878
468,timbuktu,16.7735,-3.0074,89.22,13,93,8.1,ML,1697499878
469,antofagasta,-23.65,-70.4,63.68,85,35,5.57,CL,1697499878
470,bulgan,48.8125,103.5347,32.94,57,0,4.7,MN,1697499878
471,oamaru,-45.0784,170.9801,51.39,93,100,2.59,NZ,1697499879
472,adigrat,14.277,39.462,59.38,60,51,2.98,ET,1697499879
473,impfondo,1.6381,18.0667,71.96,97,86,1.12,CG,1697499879
474,al hawatah,13.4167,34.6333,74.8,70,100,7.83,SD,1697499879
475,bulayevo,54.9056,70.4439,46.27,91,71,7.58,KZ,1697499879
476,krasnohrad,49.3814,35.4402,41.92,79,55,15.28,UA,1697499880
477,ust'-abakan,53.8525,91.3742,42.71,65,40,15.66,RU,1697499880
478,gbarnga,6.9956,-9.4722,70.74,100,61,1.63,LR,1697499880
479,zelhem,52.0067,6.3486,47.01,93,100,1.01,NL,1697499880
480,kurchatov,51.6601,35.6521,44.02,88,82,15.14,RU,1697499880
481,aldan,58.6031,125.3894,24.21,70,100,4.0,RU,1697499881
482,kitimat,54.0524,-128.6534,53.98,62,100,0.63,CA,1697499881
483,levuka,50.1834,-105.4011,67.73,26,75,5.75,CA,1697499881
484,kargasok,59.0556,80.8572,40.96,78,100,10.0,RU,1697499881
485,usinsk,65.9939,57.5281,36.07,99,100,15.99,RU,1697499798
486,brasilia,-15.7797,-47.9297,83.32,34,0,8.05,BR,1697499659
487,glace bay,46.1969,-59.957,50.79,94,100,20.71,CA,1697499882
488,washington,47.5001,-120.5015,59.34,74,100,2.57,US,1697499717
489,tshabong,-26.05,22.45,63.61,24,0,10.18,BW,1697499882
490,amga,60.8953,131.9608,18.99,73,86,3.0,RU,1697499883
491,warrnambool,-38.3833,142.4833,59.34,58,2,2.89,AU,1697499883
492,sechura,-5.5569,-80.8222,67.26,90,95,12.35,PE,1697499883
493,santiago del torno,-17.9833,-63.3833,88.56,34,20,10.18,BO,1697499883
494,okhotsk,59.3833,143.3,22.12,70,8,20.13,RU,1697499884
495,mariehamn,60.0973,19.9348,40.82,81,20,5.75,AX,1697499884
496,hadibu,12.65,54.0333,81.66,72,20,3.89,YE,1697499884
497,big spring,32.2504,-101.4787,72.05,26,0,5.75,US,1697499884
498,ascension,30.2169,-90.9001,67.05,47,0,4.61,US,1697499884
499,murraysville,34.2957,-77.8475,59.97,72,0,4.61,US,1697499885
500,puerto aysen,-45.4,-72.7,40.57,98,81,4.18,CL,1697499829
501,bubaque,11.2833,-15.8333,81.66,83,1,11.14,GW,1697499885
502,rockland,41.1668,-74.0496,57.45,91,97,3.2,US,1697499783
503,raduzhny,62.0961,77.475,37.42,91,76,7.11,RU,1697499885
504,kalmunai,7.4167,81.8167,78.01,83,51,2.19,LK,1697499886
505,rochester,43.1548,-77.6156,54.32,86,100,8.05,US,1697499598
506,baikonur,45.6167,63.3167,49.95,46,0,12.71,KZ,1697499886
507,villa gesell,-37.2639,-56.973,52.79,92,44,16.58,AR,1697499792
508,kyabe,9.4515,18.9449,71.55,91,98,4.38,TD,1697499886
509,bellevue,47.6104,-122.2007,62.4,92,100,14.0,US,1697499788
510,walvis bay,-22.9575,14.5053,56.35,94,9,3.44,NA,1697499887
511,kirensk,57.7853,108.1119,39.02,95,100,8.01,RU,1697499887
512,laziska gorne,50.1495,18.8422,41.41,74,87,1.97,PL,1697499887
513,cambria,35.5641,-121.0808,90.34,46,85,8.55,US,1697499888
514,taihecun,45.8,130.85,41.68,34,0,11.79,CN,1697499888
515,corfu,39.62,19.9197,67.78,68,75,4.61,GR,1697499888
516,siwa oasis,29.2041,25.5195,72.27,44,0,6.15,EG,1697499888
517,kuragino,53.8975,92.6725,41.76,78,100,17.65,RU,1697499889
518,dzilam gonzalez,21.2833,-88.9333,74.7,68,86,9.13,MX,1697499889
519,gao,16.6362,1.637,88.18,19,59,8.55,ML,1697499889
520,nurota,40.5614,65.6886,49.96,37,0,6.46,UZ,1697499889
521,sorsk,54.0033,90.2467,36.16,74,100,3.4,RU,1697499890
522,inverloch,-38.6333,145.7167,57.54,54,86,6.44,AU,1697499890
523,tomatlan,19.9333,-105.25,82.44,89,99,2.82,MX,1697499890
524,myeik,12.4333,98.6,77.34,89,94,2.91,MM,1697499890
525,alpine,32.835,-116.7664,88.66,37,0,8.05,US,1697499891
526,manokwari,-0.8667,134.0833,83.35,67,86,4.65,ID,1697499891
527,gunjur,13.2019,-16.7339,80.67,94,40,5.75,GM,1697499891
528,kuytun,54.3419,101.5036,35.44,83,89,9.64,RU,1697499891
529,raymond terrace,-32.75,151.75,64.45,55,40,17.27,AU,1697499891
530,morant bay,17.8815,-76.4093,87.42,79,99,2.13,JM,1697499892
531,vorotynets,56.0603,45.8633,51.53,72,100,12.53,RU,1697499892
532,thakhek,17.4103,104.8307,69.91,84,55,2.46,LA,1697499892
533,guadalupe y calvo,26.1,-106.9667,62.55,54,43,5.06,MX,1697499892
534,huarmey,-10.0681,-78.1522,65.17,91,65,12.28,PE,1697499892
535,kununurra,-15.7667,128.7333,84.18,18,0,4.61,AU,1697499731
536,vallenar,-28.5708,-70.7581,64.87,50,97,2.24,CL,1697499893
537,holmsund,63.706,20.3641,33.94,86,0,8.05,SE,1697499893
538,laojunmiao,39.8333,97.7333,37.0,48,79,4.52,CN,1697499893
539,kalawit,8.0667,122.5167,83.3,78,78,4.92,PH,1697499893
540,necochea,-38.5473,-58.7368,48.52,80,24,13.67,AR,1697499894
541,jieshi,22.8134,115.8257,73.76,69,100,20.76,CN,1697499894
542,kismayo,-0.3582,42.5454,78.69,89,72,9.64,SO,1697499894
543,filey,54.21,-0.2892,37.08,74,51,4.25,GB,1697499894
544,karkira,36.9292,6.5856,67.89,70,42,6.58,DZ,1697499894
545,oyotun,-6.8519,-79.3036,72.64,72,69,6.69,PE,1697499895
546,porto torres,40.835,8.3972,64.58,73,96,7.99,IT,1697499895
547,chibougamau,49.9168,-74.3659,42.42,75,0,5.75,CA,1697499613
548,bandar-e lengeh,26.5579,54.8807,84.13,59,0,1.32,IR,1697499895
549,galveston,29.3669,-94.9669,68.11,50,0,13.8,US,1697499641
550,north ward,-19.2454,146.8075,82.31,54,20,4.61,AU,1697499896
551,am timan,11.0297,20.2827,72.7,84,72,4.85,TD,1697499896
552,labasa,-16.4167,179.3833,82.04,71,83,13.82,FJ,1697499896
553,katsuren-haebaru,26.3369,127.8719,78.82,68,20,5.75,JP,1697499896
554,ormond-by-the-sea,29.3491,-81.0665,64.63,61,40,8.05,US,1697499897
555,namasuba,0.6894,32.4214,62.58,99,100,2.77,UG,1697499897
556,mermoz boabab,14.7065,-17.4758,83.98,84,0,0.0,SN,1697499897
557,xining,36.6167,101.7667,40.86,77,100,2.8,CN,1697499897
558,wanning,18.8003,110.3967,75.09,99,100,4.23,CN,1697499897
559,kirs,59.3388,52.2447,49.17,96,100,10.0,RU,1697499898
560,quatre cocos,-20.2078,57.7625,71.1,85,62,2.95,MU,1697499898
561,yanbu,24.0891,38.0637,80.64,44,0,9.22,SA,1697499665
562,lawas,13.764,121.0566,81.99,76,75,4.61,PH,1697499898
563,soller,39.7662,2.7152,67.03,93,91,1.01,ES,1697499898
564,thabazimbi,-24.5917,27.4116,59.2,93,0,3.31,ZA,1697499899
565,buka,40.8108,69.1986,50.13,40,34,1.36,UZ,1697499899
566,port hedland,-20.3167,118.5667,84.25,8,0,11.5,AU,1697499722
567,kokopo,-4.352,152.2633,83.88,66,79,5.44,PG,1697499899
568,yakakent,41.6325,35.5289,61.12,55,100,12.77,TR,1697499899
569,al jawf,29.5,38.75,64.53,44,0,6.35,SA,1697499900
570,kone,-21.0595,164.8658,77.43,76,97,5.5,NC,1697499653
571,polyarnyy,69.1989,33.4478,38.19,79,100,26.17,RU,1697499900
