City_ID,City,Lat,Lng,Max Temp,Humidity,Cloudiness,Wind Speed,Country,Date
0,hawaiian paradise park,19.5933,-154.9731,75.9,95,0,0.0,US,1697477617
1,edinburgh of the seven seas,-37.0676,-12.3116,54.45,67,9,4.85,SH,1697477617
2,sereflikochisar,38.9393,33.5386,64.18,44,47,9.15,TR,1697477618
3,ulsteinvik,62.3432,5.8487,49.06,92,100,11.01,NO,1697476857
4,swift current,50.2834,-107.8014,56.21,54,0,6.91,CA,1697477618
5,general pinedo,-27.3167,-61.2833,110.82,23,99,10.0,AR,1697477618
6,port alfred,-33.5906,26.891,64.18,86,72,3.0,ZA,1697477023
7,haiku-pauwela,20.9219,-156.3051,79.03,77,40,5.75,US,1697477619
8,port-aux-francais,-49.35,70.2167,38.08,85,93,27.74,TF,1697477468
9,vadso,70.0744,29.7487,36.48,87,20,17.27,NO,1697477075
10,grytviken,-54.2811,-36.5092,33.6,79,34,10.69,GS,1697477619
11,alofi,-19.0595,-169.9187,71.49,88,75,17.27,NU,1697477095
12,takanabe,32.1333,131.5,64.29,77,0,6.15,JP,1697477620
13,bethel,41.3712,-73.414,61.93,65,75,6.91,US,1697477399
14,georgetown,5.4112,100.3354,80.53,89,20,2.3,MY,1697477553
15,san rafael del sur,11.8485,-86.4384,85.17,81,95,4.36,NI,1697477621
16,adamstown,-25.066,-130.1015,69.73,86,23,14.2,PN,1697477621
17,tolanaro,-25.0319,46.9987,73.47,73,75,0.0,MG,1697477031
18,nabire,-3.3667,135.4833,75.6,93,97,4.0,ID,1697477621
19,tazacorte,28.629,-17.9293,79.77,69,0,3.44,ES,1697477622
20,ust-nera,64.5667,143.2,-7.4,99,55,3.15,RU,1697477622
21,nadym,65.5333,72.5167,34.21,98,100,9.35,RU,1697477622
22,iqaluit,63.7506,-68.5145,26.33,63,20,9.22,CA,1697477368
23,waitangi,-43.9535,-176.5597,53.82,90,69,7.0,NZ,1697477623
24,berdigestyakh,62.0989,126.6992,23.29,69,100,10.0,RU,1697477623
25,west island,-12.1568,96.8225,78.78,83,40,12.66,CC,1697477623
26,sheoganj,25.15,73.0667,76.64,57,17,6.31,IN,1697477623
27,papatowai,-46.5619,169.4708,43.92,76,94,8.68,NZ,1697477624
28,lebu,-37.6167,-73.65,54.1,68,0,21.0,CL,1697477024
29,lazaro cardenas,17.9583,-102.2,86.36,67,88,0.51,MX,1697477624
30,kerikeri,-35.2268,173.9474,56.91,93,65,7.36,NZ,1697477068
31,point pedro,9.8167,80.2333,79.14,85,87,8.23,LK,1697477624
32,blackmans bay,-43.0167,147.3167,41.13,85,25,1.01,AU,1697477625
33,nova sintra,14.8667,-24.7167,77.47,71,54,17.02,CV,1697477037
34,chonchi,-42.6128,-73.8092,54.61,49,46,5.3,CL,1697477625
35,afaahiti,-17.75,-149.2833,76.87,82,100,12.1,PF,1697477002
36,invercargill,-46.4,168.35,43.02,95,83,5.84,NZ,1697477625
37,enewetak,11.3474,162.3373,82.92,76,25,13.27,MH,1697477625
38,berbera,10.4396,45.0143,84.79,72,1,3.98,SO,1697477626
39,harnosand,62.6323,17.9379,39.22,64,10,19.06,SE,1697477626
40,albany,42.6001,-73.9662,59.41,66,83,1.01,US,1697477377
41,jiayuguan,39.8167,98.3,45.84,50,100,3.36,CN,1697477626
42,ujae,8.9322,165.7642,82.78,75,18,10.25,MH,1697477626
43,dunedin,-45.8742,170.5036,45.81,96,100,8.01,NZ,1697477627
44,fort st. john,56.2499,-120.8529,40.89,93,75,4.61,CA,1697476998
45,tiksi,71.6872,128.8694,12.52,89,98,10.33,RU,1697477627
46,the pas,53.8251,-101.2541,53.62,58,0,6.91,CA,1697477627
47,sharjah,25.3573,55.4033,89.58,58,0,8.05,AE,1697477628
48,st. john's,47.5649,-52.7093,54.28,98,100,19.57,CA,1697477520
49,vorgashor,67.5833,63.95,34.86,99,100,11.18,RU,1697477628
50,udachny,66.4167,112.4,25.45,92,99,3.87,RU,1697477628
51,atafu village,-8.5421,-172.5159,82.13,80,100,18.81,TK,1697477628
52,hachinohe,40.5,141.5,53.15,58,22,13.6,JP,1697477629
53,cadale,2.7603,46.3222,80.38,83,100,11.01,SO,1697477629
54,puerto natales,-51.7236,-72.4875,55.85,44,40,32.21,CL,1697477629
55,ushuaia,-54.8,-68.3,47.86,54,75,10.36,AR,1697477341
56,palikir - national government center,6.9248,158.1611,82.54,76,76,8.23,FM,1697477081
57,stanley,54.868,-1.6985,45.79,81,0,2.3,GB,1697477629
58,thompson,55.7435,-97.8558,48.36,81,75,4.61,CA,1697477630
59,laurel,39.0993,-76.8483,61.21,64,100,11.5,US,1697477587
60,puerto baquerizo moreno,-0.9,-89.6,81.59,69,75,11.5,EC,1697477630
61,ta`u,-14.2336,-169.5144,79.75,79,47,19.62,AS,1697477630
62,zhouzhuang,31.1161,120.8451,64.35,80,0,3.2,CN,1697477631
63,leninsk,48.7119,45.1994,62.22,77,52,18.1,RU,1697477631
64,guaratuba,-25.8828,-48.5747,73.35,87,86,5.86,BR,1697477631
65,longboat key,27.4125,-82.659,74.08,62,75,12.66,US,1697477631
66,bopolu,7.0667,-10.4875,75.29,96,100,4.34,LR,1697477632
67,ketchikan,55.3422,-131.6461,55.87,82,100,9.22,US,1697477100
68,fale old settlement,-9.3852,-171.2468,82.71,79,100,21.68,TK,1697477061
69,batesville,35.7698,-91.641,60.44,54,0,9.22,US,1697477409
70,weno,7.4515,151.8468,80.55,94,40,3.44,FM,1697477632
71,longyearbyen,78.2186,15.6401,26.44,74,40,13.8,SJ,1697477632
72,sanya,18.2431,109.505,78.96,89,75,6.71,CN,1697477633
73,lloydminster,53.2835,-110.0016,50.22,71,75,4.61,CA,1697477633
74,as salamiyah,35.0113,37.0532,66.4,77,0,16.73,SY,1697477633
75,east london,-33.0153,27.9116,61.74,94,75,8.05,ZA,1697477633
76,arnprior,45.4334,-76.3494,58.33,70,100,9.8,CA,1697477634
77,villa dolores,-31.9459,-65.1896,87.67,24,0,17.4,AR,1697477634
78,gargalianoi,37.0667,21.6333,73.35,84,84,6.91,GR,1697477634
79,sinabang,2.4803,96.3801,79.45,81,100,11.3,ID,1697477634
80,anadyr,64.75,177.4833,28.9,86,75,13.42,RU,1697477635
81,olonkinbyen,70.9221,-8.7187,33.31,77,100,14.43,SJ,1697477635
82,shimoda,34.6667,138.95,63.1,74,0,11.05,JP,1697477039
83,pyhajarvi,67.0701,27.2176,35.22,84,100,12.73,FI,1697477635
84,isafjordur,66.0755,-23.124,37.44,75,20,12.66,IS,1697477635
85,yanam,16.7333,82.2167,76.19,80,76,1.14,IN,1697477636
86,uzhur,55.3036,89.8339,43.47,66,99,14.34,RU,1697477636
87,karbala,32.616,44.0249,77.86,34,0,6.96,IQ,1697477636
88,avarua,-21.2078,-159.775,71.65,64,75,5.75,CK,1697477636
89,hobyo,5.3505,48.5268,82.31,77,74,15.1,SO,1697477636
90,mbuji-mayi,-6.15,23.6,77.68,71,49,4.16,CD,1697477637
91,boulazac,45.1167,0.75,65.91,48,55,3.87,FR,1697477637
92,geraldton,-28.7667,114.6,63.01,34,7,10.36,AU,1697477637
93,el calafate,-50.3408,-72.2768,48.0,54,100,11.05,AR,1697477638
94,tlapa de comonfort,17.55,-98.55,76.91,56,66,8.21,MX,1697477638
95,kailua-kona,19.6406,-155.9956,78.76,88,75,6.91,US,1697477638
96,margate,51.3813,1.3862,54.9,71,100,4.0,GB,1697477095
97,kruisfontein,-34.0033,24.7314,58.69,87,34,11.3,ZA,1697477639
98,leava,-14.3,-178.1667,79.92,81,79,22.39,WF,1697477639
99,guerrero negro,27.9769,-114.0611,77.0,55,5,6.78,MX,1697477358
100,margaret river,-33.95,115.0667,61.34,44,35,3.09,AU,1697477639
101,elele,5.1009,6.8141,75.52,87,99,7.0,NG,1697477639
102,jamestown,42.097,-79.2353,52.02,98,100,11.5,US,1697477419
103,bredasdorp,-34.5322,20.0403,60.73,92,35,14.79,ZA,1697477640
104,maragogi,-9.0122,-35.2225,80.17,63,39,12.59,BR,1697477640
105,port elizabeth,-33.918,25.5701,64.69,89,40,8.05,ZA,1697477640
106,dakhla,23.6848,-15.958,77.02,65,96,16.11,EH,1697477640
107,mount pearl,47.5166,-52.7813,53.46,98,100,29.93,CA,1697477641
108,langsa,4.4683,97.9683,74.88,98,96,2.73,ID,1697477641
109,wellington,-41.2866,174.7756,58.66,93,75,34.52,NZ,1697477604
110,egilsstadir,65.2653,-14.3948,39.11,93,100,10.36,IS,1697477054
111,tofol,5.3248,163.0078,83.07,75,91,7.58,FM,1697477642
112,cheremukhovo,60.3484,59.9851,50.97,85,100,8.99,RU,1697477642
113,kalmunai,7.4167,81.8167,78.51,84,81,7.65,LK,1697477642
114,fort bragg,35.139,-79.006,65.93,47,75,7.0,US,1697477085
115,safi,32.1667,-8.8333,75.09,52,97,7.58,MA,1697477643
116,yuzhno-kurilsk,44.0306,145.8556,51.37,75,75,8.75,RU,1697477116
117,ribeira grande,38.5167,-28.7,73.8,68,20,16.11,PT,1697477643
118,victorica,-36.2151,-65.4359,75.13,17,0,18.03,AR,1697477643
119,lockwood,45.8191,-108.4149,68.18,50,40,13.8,US,1697477644
120,punta arenas,-53.15,-70.9167,53.71,50,75,31.07,CL,1697477346
121,pudasjarvi,65.3833,26.9167,35.91,97,100,10.71,FI,1697477644
122,tindouf,27.6711,-8.1474,93.65,16,40,4.61,DZ,1697477644
123,tazovsky,67.4667,78.7,31.24,97,100,6.06,RU,1697477644
124,new norfolk,-42.7826,147.0587,42.3,94,9,3.18,AU,1697477113
125,kasaragod,12.5,75.0,79.07,86,100,1.39,IN,1697477645
126,benghazi,32.1167,20.0667,75.85,68,0,8.66,LY,1697477645
127,keflavik,64.0049,-22.5624,43.23,75,75,6.91,IS,1697477645
128,bahia honda,22.9036,-83.1592,81.27,62,53,12.68,CU,1697477646
129,petropavlovsk-kamchatsky,53.0452,158.6483,45.19,88,75,11.18,RU,1697477646
130,carthage,36.8611,10.3316,81.93,54,40,4.61,TN,1697477646
131,christchurch,-43.5333,172.6333,48.94,87,100,5.75,NZ,1697477406
132,klyuchi,52.2667,79.1667,50.13,55,100,11.72,RU,1697477051
133,fruitland,38.3221,-75.6202,60.98,63,20,13.8,US,1697477647
134,talnakh,69.4865,88.3972,29.21,96,100,6.53,RU,1697477647
135,nemuro,43.3236,145.575,50.32,66,67,15.75,JP,1697477647
136,camarinas,43.1311,-9.1817,70.93,87,100,25.01,ES,1697477647
137,isiro,2.7739,27.616,66.78,100,100,0.85,CD,1697477647
138,galliano,29.4422,-90.2992,68.0,34,0,14.97,US,1697477648
139,hermanus,-34.4187,19.2345,62.76,84,11,14.61,ZA,1697477648
140,yellowknife,62.456,-114.3525,43.41,100,75,10.36,CA,1697477554
141,kolokani,13.5728,-8.0339,97.39,15,58,4.16,ML,1697477074
142,tarnogskiy gorodok,60.4997,43.5761,41.88,89,100,5.3,RU,1697477109
143,abnub,27.2696,31.1511,78.03,30,0,8.43,EG,1697477649
144,contai,21.7786,87.7536,76.44,75,1,2.75,IN,1697477649
145,vilyuchinsk,52.9306,158.4028,46.67,94,100,16.89,RU,1697477650
146,arraial do cabo,-22.9661,-42.0278,80.46,74,20,23.02,BR,1697477650
147,kodiak,57.79,-152.4072,44.11,93,100,8.05,US,1697477650
148,beloyarskiy,63.7119,66.6722,41.0,91,57,5.01,RU,1697477650
149,pangody,65.85,74.4859,33.66,86,100,14.16,RU,1697477650
150,chimoio,-19.1164,33.4833,67.86,100,75,6.24,MZ,1697477651
151,lautoka,-17.6167,177.4667,69.66,78,20,5.75,FJ,1697477651
152,iskateley,67.6803,53.1512,39.02,93,90,13.0,RU,1697477651
153,colonia,50.9333,6.95,49.96,82,0,3.44,DE,1697477435
154,el granada,37.5027,-122.4694,73.49,74,0,3.44,US,1697477652
155,kurmuk,10.55,34.2833,73.06,89,100,3.42,SD,1697477652
156,keelung,25.1283,121.7419,75.06,64,74,11.01,TW,1697477652
157,kangding,30.0513,101.9603,49.24,90,84,2.57,CN,1697477653
158,college,64.8569,-147.8028,34.07,84,75,8.05,US,1697477653
159,kodinsk,58.6881,99.1844,40.44,89,92,6.8,RU,1697477653
160,napili-honokowai,20.9708,-156.6705,80.17,79,92,8.23,US,1697477653
161,kongsvinger,60.1905,11.9977,42.48,70,67,3.56,NO,1697477654
162,inarajan village,13.2736,144.7484,81.57,91,46,2.82,GU,1697477654
163,kirakira,-10.4544,161.9205,78.85,86,98,5.75,SB,1697477654
164,poli,-3.3333,36.8,67.14,64,100,6.73,TZ,1697477654
165,lihue,21.9789,-159.3672,78.39,85,100,11.5,US,1697477493
166,piti village,13.4626,144.6933,81.48,88,0,4.61,GU,1697477655
167,oamaru,-45.0784,170.9801,45.37,92,100,7.58,NZ,1697477655
168,cushing,35.9851,-96.767,61.95,41,0,11.5,US,1697477362
169,qaqortoq,60.7167,-46.0333,34.84,100,100,4.81,GL,1697477655
170,mejit,10.2753,170.8646,82.63,73,7,14.52,MH,1697477655
171,wailua homesteads,22.0669,-159.378,77.79,87,100,11.5,US,1697477656
172,vikulovo,56.8167,70.6107,48.29,94,98,7.96,RU,1697477656
173,lompoc,34.6391,-120.4579,66.34,100,40,4.61,US,1697477656
174,tsiombe,-25.3,45.4833,71.92,69,100,8.08,MG,1697477058
175,tidjikja,18.5564,-11.4271,93.25,11,21,8.08,MR,1697477656
176,kapa'a,22.0752,-159.319,79.12,86,100,11.5,US,1697477657
177,villa gesell,-37.2639,-56.973,59.94,88,94,12.53,AR,1697477657
178,kapuskasing,49.4169,-82.4331,41.09,87,75,10.36,CA,1697477530
179,puerto ayora,-0.7393,-90.3518,80.56,87,91,8.01,EC,1697477657
180,inari,68.906,27.0288,35.8,90,68,10.85,FI,1697477658
181,medina,24.4686,39.6142,95.43,14,0,10.36,SA,1697477658
182,veraval,20.9,70.3667,80.82,74,6,9.04,IN,1697477068
183,camapua,-19.5314,-54.0439,99.97,22,47,11.97,BR,1697477658
184,whitehorse,60.7161,-135.0538,30.97,100,100,3.44,CA,1697477659
185,puerto deseado,-47.7503,-65.8938,54.36,49,12,10.18,AR,1697477578
186,whakatane,-37.9585,176.9854,56.77,97,100,7.72,NZ,1697477659
187,urangan,-25.3,152.9,68.43,85,0,9.06,AU,1697477659
188,richards bay,-28.783,32.0377,63.88,96,100,3.31,ZA,1697477659
189,nouadhibou,20.931,-17.0347,84.18,51,44,14.97,MR,1697477660
190,fortuna,40.5982,-124.1573,64.92,93,40,10.36,US,1697477660
191,la passe,45.5549,-0.8967,66.43,49,49,9.71,FR,1697477660
192,tommot,58.9564,126.2925,15.42,92,69,2.68,RU,1697477660
193,mount gambier,-37.8333,140.7667,43.9,91,27,3.13,AU,1697477068
194,priozersk,61.0393,30.1291,38.95,87,98,10.04,RU,1697477661
195,sabang,5.8933,95.3214,79.72,86,99,24.81,ID,1697477661
196,nova vicosa,-17.8919,-39.3719,81.75,63,32,12.28,BR,1697477089
197,hamilton,39.1834,-84.5333,55.2,77,100,11.5,US,1697477644
198,ust'-kut,56.7938,105.7672,31.44,87,100,10.0,RU,1697477661
199,mpika,-11.8343,31.4529,80.53,24,91,2.48,ZM,1697477662
200,suntar,62.1444,117.6319,36.14,99,100,5.01,RU,1697477662
201,guinguineo,14.2667,-15.95,94.87,27,91,0.63,SN,1697477662
202,nguruka,-5.1092,31.0419,75.4,62,76,6.24,TZ,1697477662
203,kone,-21.0595,164.8658,73.22,91,99,4.38,NC,1697477663
204,roma,43.2128,-75.4557,61.57,76,75,8.05,US,1697477663
205,pacific grove,36.6177,-121.9166,68.43,86,40,5.75,US,1697477433
206,hirara,24.8,125.2833,76.86,64,99,9.22,JP,1697477663
207,mawu,29.5923,107.3139,63.41,78,7,4.43,CN,1697477087
208,wad medani,14.4012,33.5199,83.03,55,89,8.43,SD,1697477664
209,la'ie,21.6477,-157.9253,77.11,88,57,4.0,US,1697477664
210,saipan,15.1355,145.701,81.3,89,75,5.75,MP,1697477664
211,burang,30.25,81.1667,32.61,66,87,5.32,CN,1697477665
212,illela,13.7292,5.2975,92.98,18,78,7.05,NG,1697477665
213,santa teresa,10.2341,-66.6631,94.41,41,100,5.26,VE,1697477665
214,lhokseumawe,5.1801,97.1507,78.03,88,96,3.29,ID,1697477665
215,luanda,-8.8368,13.2343,80.6,74,20,13.8,AO,1697477094
216,harstad,68.799,16.5293,38.8,98,94,20.0,NO,1697477666
217,crane,31.3974,-102.3501,67.32,32,0,5.44,US,1697477666
218,saint-pierre,-21.3393,55.4781,76.68,78,40,2.3,RE,1697477666
219,port mathurin,-19.6833,63.4167,75.34,87,24,9.24,MU,1697477667
220,kisber,47.5029,18.0367,45.84,48,55,1.39,HU,1697477667
221,karuri,-0.7,37.1833,69.91,76,100,2.35,KE,1697477667
222,cambria,35.5641,-121.0808,73.62,51,2,4.99,US,1697477667
223,taunggyi,20.7833,97.0333,60.3,92,75,1.45,MM,1697477668
224,qusmuryn,52.4503,64.6311,53.04,71,25,7.9,KZ,1697477668
225,vorkuta,67.5,64.0,35.19,98,100,11.32,RU,1697477668
226,tralee,52.2704,-9.7026,52.05,82,20,8.05,IE,1697477668
227,tan-tan,28.438,-11.1032,78.75,61,0,14.97,MA,1697477669
228,kedrovyy,56.1667,91.8167,40.05,80,100,12.8,RU,1697477669
229,nurabad,34.0734,47.9725,54.75,51,35,4.85,IR,1697477669
230,rongelap,11.1635,166.8941,83.26,76,85,14.76,MH,1697477669
231,kuta,-8.7233,115.1723,78.75,94,20,5.01,ID,1697477670
232,gunjur,13.2019,-16.7339,89.67,70,40,9.22,GM,1697477670
233,vila velha,-20.3297,-40.2925,84.15,85,20,14.97,BR,1697477447
234,roslavl',53.9528,32.8639,39.42,84,89,8.3,RU,1697477670
235,cockburn town,21.4612,-71.1419,87.76,66,20,11.5,TC,1697477107
236,flin flon,54.7682,-101.865,51.64,62,20,4.61,CA,1697477671
237,mahajanga,-15.7167,46.3167,82.42,83,40,11.5,MG,1697477671
238,vila franca do campo,37.7167,-25.4333,72.01,99,56,17.72,PT,1697477418
239,port jervis,41.3751,-74.6927,62.85,76,87,1.99,US,1697477451
240,bamboo flat,11.7,92.7167,82.49,83,40,2.3,IN,1697477672
241,caidian,30.5833,114.0333,68.13,45,0,5.17,CN,1697477672
242,kashgar,39.4547,75.9797,61.81,29,20,8.95,CN,1697477672
243,inyonga,-6.7167,32.0667,77.85,47,100,3.36,TZ,1697477672
244,byron bay,-28.65,153.6167,59.7,59,40,18.59,AU,1697477672
245,granby,45.4001,-72.7324,57.07,77,92,4.61,CA,1697477673
246,luderitz,-26.6481,15.1594,66.69,63,0,15.93,NA,1697477673
247,ban houakhoua,20.2453,100.4547,70.41,99,25,0.31,LA,1697477673
248,swakopmund,-22.6833,14.5333,58.98,85,29,3.0,NA,1697477673
249,kayyerkan,69.3786,87.7439,29.3,100,100,6.08,RU,1697477674
250,barra de santo antonio,-9.4047,-35.5072,83.48,65,39,9.62,BR,1697477674
251,bokakhat,26.6333,93.6,70.47,92,1,0.69,IN,1697477674
252,hithadhoo,-0.6,73.0833,81.41,74,25,18.5,MV,1697477674
253,thames,-37.1333,175.5333,58.42,95,94,6.87,NZ,1697477674
254,vilyuysk,63.7553,121.6247,28.18,52,100,11.99,RU,1697477110
255,remire-montjoly,4.9167,-52.2667,93.24,52,0,13.8,GF,1697477675
256,minas de marcona,-15.2119,-75.1103,71.35,54,37,9.82,PE,1697477675
257,jalpan,21.2333,-99.4833,62.62,93,100,4.7,MX,1697477675
258,illizi,26.4833,8.4667,91.2,23,68,7.85,DZ,1697477676
259,masterton,-40.9597,175.6575,57.88,73,97,10.45,NZ,1697477676
260,chibougamau,49.9168,-74.3659,40.62,87,100,10.36,CA,1697477676
261,okhotsk,59.3833,143.3,30.13,94,95,20.87,RU,1697477676
262,port douglas,-16.4833,145.4667,70.57,77,55,4.16,AU,1697477507
263,ilulissat,69.2167,-51.1,23.02,80,75,17.27,GL,1697477677
264,al marj,32.488,20.8317,68.76,80,0,6.89,LY,1697477677
265,murun-kuren,49.6342,100.1625,31.69,64,20,5.35,MN,1697477677
266,thinadhoo,0.5333,72.9333,81.86,75,16,19.22,MV,1697477677
267,san pedro pochutla,15.7333,-96.4667,87.51,60,97,5.93,MX,1697477678
268,kamina,-8.7386,24.9906,75.65,64,92,5.7,CD,1697477678
269,dudinka,69.4058,86.1778,29.62,74,100,5.01,RU,1697477678
270,arfoud,31.4348,-4.2375,80.04,20,10,4.52,MA,1697477678
271,ames,42.0347,-93.6199,59.11,68,0,10.36,US,1697477640
272,lincolnshire,53.1667,-0.25,49.95,78,75,3.44,GB,1697477679
273,muzaffarabad,34.37,73.4711,57.0,88,100,4.88,PK,1697477679
274,midvagur,62.0511,-7.1939,50.83,87,100,20.71,FO,1697477679
275,san patricio,28.017,-97.5169,71.19,34,0,14.41,US,1697477679
276,uturoa,-16.7333,-151.4333,77.47,79,94,14.81,PF,1697477680
277,hargeysa,9.56,44.065,75.25,62,81,5.35,SO,1697477089
278,port moresby,-9.4431,147.1797,74.62,100,20,3.44,PG,1697477122
279,bilibino,68.0546,166.4372,12.96,99,99,2.84,RU,1697477680
280,khost,33.3395,69.9204,56.86,83,88,3.4,AF,1697477680
281,cavelossim,15.1726,73.9419,76.98,84,86,1.79,IN,1697477681
282,susuman,62.7833,148.1667,3.97,87,59,3.0,RU,1697477681
283,calabozo,8.9242,-67.4293,85.24,67,99,3.44,VE,1697477681
284,mont-laurier,46.5501,-75.4993,51.42,74,100,7.43,CA,1697477681
285,polyarnyy,69.1989,33.4478,38.35,83,100,29.15,RU,1697477682
286,fonte boa,-2.4959,-66.2662,89.31,53,96,3.94,BR,1697477682
287,bardai,11.65,7.2333,81.39,33,99,7.11,NG,1697477682
288,narvik,68.4384,17.4272,40.39,96,100,3.36,NO,1697476891
289,anloga,5.7947,0.8973,80.15,82,80,16.28,GH,1697477683
290,taltal,-25.4,-70.4833,65.12,67,53,5.86,CL,1697477098
291,olinda,-8.0089,-34.8553,83.93,58,40,17.27,BR,1697477454
292,rustaq,23.3908,57.4244,86.07,43,79,0.36,OM,1697477683
293,shubarshi,48.5872,57.1869,50.32,62,0,10.47,KZ,1697477683
294,kargil,34.5667,76.1,39.42,47,98,4.09,IN,1697477684
295,kokopo,-4.352,152.2633,77.34,86,91,3.11,PG,1697477684
296,suva,-18.1416,178.4415,67.48,94,40,0.0,FJ,1697477684
297,penha,-26.7694,-48.6458,67.87,100,75,2.3,BR,1697477547
298,shijiang,27.0819,110.7933,63.81,56,2,1.59,CN,1697477684
299,porto novo,6.4965,2.6036,82.22,76,73,9.15,BJ,1697476865
300,newman,37.3138,-121.0208,76.23,34,17,5.86,US,1697477685
301,santa rosalia,27.3167,-112.2833,88.61,27,7,5.88,MX,1697477685
302,lupane,-18.9315,27.807,75.38,63,100,2.95,ZW,1697477685
303,rio grande,-32.035,-52.0986,68.11,97,100,8.61,BR,1697477640
304,codrington,-38.2667,141.9667,45.03,81,8,4.07,AU,1697477686
305,jandiala guru,31.5614,75.0267,64.33,72,84,4.54,IN,1697477686
306,leticia,-4.2153,-69.9406,84.25,74,40,3.44,CO,1697477686
307,kingston,17.997,-76.7936,89.24,76,20,9.22,JM,1697477623
308,port lincoln,-34.7333,135.8667,51.69,75,9,10.13,AU,1697477687
309,nuku'alofa,-21.1333,-175.2,70.14,83,20,8.05,TO,1697477687
310,skovorodino,53.9833,123.9167,29.53,58,31,2.77,RU,1697477687
311,naze,28.3667,129.4833,67.12,60,0,8.77,JP,1697477687
312,melekeok village,7.4957,134.6367,75.76,94,75,0.0,PW,1697477688
313,saudarkrokur,65.7461,-19.6394,35.47,91,100,4.7,IS,1697477688
314,lerwick,60.1545,-1.1494,50.0,86,100,22.41,GB,1697477688
315,sao felix do xingu,-6.6447,-51.995,94.46,35,68,6.2,BR,1697477688
316,mossel bay,-34.1831,22.146,62.53,86,16,19.3,ZA,1697477097
317,kokpekty,48.75,82.4,40.71,71,64,3.15,KZ,1697477689
318,ko pha ngan,9.7578,100.0291,79.07,73,69,7.11,TH,1697477689
319,hailin,44.5833,129.4167,32.92,49,0,5.7,CN,1697477689
320,jalai nur,49.45,117.7,39.07,54,77,0.92,CN,1697477689
321,haparanda,65.8355,24.1368,35.65,78,96,16.53,SE,1697477690
322,seguela,7.9611,-6.6731,77.92,78,54,0.76,CI,1697477690
323,papao,-17.75,-149.55,80.28,80,100,12.39,PF,1697477690
324,dawei,14.0833,98.2,75.34,93,66,2.8,MM,1697477691
325,portland,45.5234,-122.6762,61.84,95,100,10.0,US,1697477403
326,mili,6.0815,171.735,83.32,72,35,7.81,MH,1697477692
327,ubari,26.5921,12.7805,78.8,17,0,8.77,LY,1697477692
328,hadibu,12.65,54.0333,81.46,76,86,7.09,YE,1697477693
329,san antonio de pale,-1.4014,5.6325,78.66,82,99,13.53,GQ,1697477693
330,berezovyy,51.6667,135.7,35.19,99,100,5.17,RU,1697477693
331,bikenibeu village,1.3673,173.1241,76.96,94,100,10.36,KI,1697477693
332,elliot lake,46.3834,-82.6331,53.65,46,8,7.65,CA,1697477694
333,aksu,41.1231,80.2644,58.51,30,33,5.59,CN,1697477694
334,novo aripuana,-5.1206,-60.3797,94.33,40,57,2.35,BR,1697477694
335,sydney mines,46.2367,-60.2177,52.81,95,100,21.99,CA,1697477694
336,les cayes,18.2,-73.75,88.5,61,55,11.25,HT,1697477695
337,kingscliff,-28.2667,153.5667,65.77,68,100,12.66,AU,1697477695
338,badger,64.8,-147.5333,33.98,84,75,8.05,US,1697477524
339,praia da vitoria,38.7333,-27.0667,71.76,78,20,19.1,PT,1697477695
340,elko,41.0002,-115.5012,61.16,33,8,1.99,US,1697477493
341,vilaka,57.1846,27.6722,38.95,82,99,9.1,LV,1697477696
342,nema,57.5067,50.5011,51.51,64,47,14.32,RU,1697477696
343,uporovo,56.3109,66.2693,55.96,92,99,9.46,RU,1697477696
344,cabo san lucas,22.8909,-109.9124,92.61,66,0,4.61,MX,1697477501
345,galle,6.0367,80.217,78.51,85,61,4.05,LK,1697477697
346,igarka,67.4667,86.5833,31.1,96,100,11.68,RU,1697477697
347,sokoni,-6.4333,39.55,79.63,85,78,11.03,TZ,1697477697
348,faro,37.0194,-7.9322,73.18,83,40,8.05,PT,1697477529
349,colares,38.7992,-9.4469,73.33,96,100,23.0,PT,1697477698
350,engenheiro beltrao,-23.7972,-52.2692,93.09,34,36,8.77,BR,1697477698
351,tekeli,44.83,78.8239,41.41,51,50,8.37,KZ,1697477698
352,puerto armuelles,8.2833,-82.8667,85.98,78,89,7.0,PA,1697477698
353,stary krym,45.0333,35.1,45.27,66,77,15.28,UA,1697477698
354,coquimbo,-29.9533,-71.3436,62.33,67,0,11.5,CL,1697477699
355,revda,56.801,59.9303,48.99,86,38,10.83,RU,1697477699
356,rikaze,29.25,88.8833,45.84,40,100,4.45,CN,1697477699
357,mahibadhoo,3.7833,72.9667,82.6,76,51,12.75,MV,1697477699
358,belgrade,44.804,20.4651,47.43,83,0,3.44,RS,1697477699
359,skegness,53.1436,0.3363,51.35,74,100,8.3,GB,1697477700
360,utrik,11.2278,169.8474,83.1,74,70,16.55,MH,1697477700
361,holualoa,19.6228,-155.9522,75.04,89,75,6.91,US,1697477700
362,carnarvon,-24.8667,113.6333,75.6,54,0,11.36,AU,1697477118
363,levuka,50.1834,-105.4011,60.53,44,40,8.05,CA,1697477701
364,mirny,62.5353,113.9611,32.23,100,100,1.99,RU,1697477118
365,yemetsk,63.4721,41.7941,39.6,76,88,9.4,RU,1697477701
366,broken hill,-31.95,141.4333,50.76,45,0,14.07,AU,1697477402
367,tura,25.5198,90.2201,68.52,91,4,4.12,IN,1697477701
368,aasiaat,68.7098,-52.8699,16.45,97,91,5.91,GL,1697477702
369,dimbokro,6.6451,-4.7048,75.4,94,77,5.59,CI,1697477702
370,villemandeur,47.987,2.718,52.14,61,70,9.26,FR,1697477702
371,erzincan,39.75,39.5,54.7,76,75,1.14,TR,1697477703
372,solleftea,63.1667,17.2667,39.06,70,14,9.42,SE,1697477703
373,mozhga,56.4447,52.2276,51.71,57,3,13.51,RU,1697477703
374,aswan,24.0934,32.907,80.56,21,0,10.69,EG,1697477703
375,kavaratti,10.5669,72.642,82.94,74,64,12.95,IN,1697477704
376,kristiansund,63.1115,7.732,47.05,87,75,11.5,NO,1697477704
377,verkhnevilyuysk,63.4453,120.3167,26.94,69,100,8.01,RU,1697477704
378,madimba,-10.4,40.3333,77.23,89,41,8.12,TZ,1697477704
379,vuktyl,63.8567,57.3094,44.11,81,100,10.0,RU,1697477704
380,anatuya,-28.4606,-62.8347,102.15,23,100,15.66,AR,1697477705
381,alice springs,-23.7,133.8833,54.95,47,0,8.05,AU,1697477705
382,kupang,-10.1667,123.5833,77.58,73,15,5.75,ID,1697477705
383,queenstown,-31.8976,26.8753,51.85,90,100,8.37,ZA,1697477706
384,oranjemund,-28.55,16.4333,64.44,72,0,9.6,NA,1697477706
385,tabatinga,-4.2525,-69.9381,84.29,78,40,3.44,BR,1697477629
386,gazojak,41.1875,61.4036,57.31,22,0,11.5,TM,1697477706
387,scottburgh,-30.2867,30.7532,64.02,91,100,20.33,ZA,1697477707
388,ailuk,10.2197,169.9797,82.72,76,28,12.55,MH,1697477707
389,kwale,5.7063,6.4374,76.17,87,99,5.08,NG,1697477707
390,wanning,18.8003,110.3967,77.14,93,100,15.66,CN,1697477708
391,macapa,0.0389,-51.0664,93.18,46,20,10.36,BR,1697477708
392,santa ana,33.7456,-117.8678,89.65,66,0,1.01,US,1697477531
393,kirensk,57.7853,108.1119,42.03,95,100,8.01,RU,1697477708
394,beidaihehaibin,39.8222,119.5181,56.17,64,2,8.34,CN,1697477708
395,porto seguro,-16.4497,-39.0647,81.12,65,40,11.5,BR,1697477513
396,san luis,-33.295,-66.3356,74.79,15,1,17.52,AR,1697477508
397,bonthe,7.5264,-12.505,81.23,78,79,7.94,SL,1697477709
398,kamaishi,39.2667,141.8833,54.43,66,17,9.57,JP,1697477709
399,opuwo,-18.0607,13.84,79.25,14,41,10.47,NA,1697477710
400,nago,26.5881,127.9761,73.45,62,15,6.26,JP,1697477710
401,kenai,60.5544,-151.2583,46.09,74,100,20.71,US,1697477115
402,moyale,3.5167,39.0584,71.28,77,89,5.93,KE,1697477710
403,menaka,15.9182,2.4022,97.0,14,43,6.22,ML,1697477710
404,ingeniero guillermo n. juarez,-23.9,-61.85,114.78,12,22,22.35,AR,1697477711
405,mayahi,13.9553,7.6712,93.94,15,86,9.13,NE,1697477711
406,sumperk,49.9653,16.9706,42.33,73,59,2.91,CZ,1697477711
407,doksy,50.5647,14.6555,47.32,73,96,3.44,CZ,1697477711
408,ascension,30.2169,-90.9001,69.21,46,75,11.5,US,1697477712
409,brookings,44.3114,-96.7984,56.44,61,0,9.22,US,1697477511
410,kamphaeng phet,16.25,99.5,74.25,84,100,3.02,TH,1697477713
411,marianna,30.7744,-85.2269,67.96,39,20,18.41,US,1697477713
412,bismarck,46.8083,-100.7837,58.86,59,0,10.36,US,1697477685
413,lafiagi,8.8667,5.4167,84.69,62,72,1.57,NG,1697477713
414,birobidzhan,48.8,132.95,32.83,72,22,4.45,RU,1697477714
415,lashio,22.9333,97.75,61.59,95,6,1.41,MM,1697477714
416,nar'yan-mar,67.6713,53.087,39.11,93,92,13.0,RU,1697477714
417,jalostotitlan,21.2,-102.4667,77.47,31,20,10.89,MX,1697477714
418,gadzhiyevo,69.2551,33.3362,38.43,80,100,29.91,RU,1697477715
419,morehead city,34.7229,-76.726,66.0,54,0,12.66,US,1697477715
420,ulladulla,-35.35,150.4667,49.6,65,43,12.88,AU,1697477715
421,murraysville,34.2957,-77.8475,68.05,60,75,9.22,US,1697477716
422,maceio,-9.6658,-35.7353,83.64,54,75,12.66,BR,1697477123
423,wynyard,-41.0,145.7167,39.67,78,1,4.7,AU,1697477716
424,sao jose da coroa grande,-8.8978,-35.1478,80.38,63,50,12.71,BR,1697477716
425,gharyan,32.1722,13.0203,72.1,27,0,3.96,LY,1697477716
426,port blair,11.6667,92.75,82.44,83,40,2.3,IN,1697477717
427,pisco,-13.7,-76.2167,69.03,83,75,12.66,PE,1697477667
428,ha tien,10.3833,104.4833,79.02,85,100,7.14,VN,1697477717
429,labytnangi,66.6572,66.4183,34.29,98,99,6.46,RU,1697477717
430,nalut,30.3333,10.85,76.44,17,26,2.91,LY,1697477717
431,guayaramerin,-10.8368,-65.3614,93.25,46,40,3.44,BO,1697477718
432,cannonvale,-20.2833,148.7,69.19,80,58,0.6,AU,1697477718
433,bedesa,8.9,40.7833,64.56,77,54,1.86,ET,1697477718
434,pangkalpinang,-2.1333,106.1333,78.3,83,45,5.7,ID,1697477718
435,akom ii,2.7833,10.5667,71.08,99,98,3.18,CM,1697477718
436,bandon,51.7469,-8.7425,53.19,81,100,14.7,IE,1697477719
437,yanbu,24.0891,38.0637,87.84,42,0,13.8,SA,1697477719
438,alamosa,37.4695,-105.87,55.38,26,0,4.61,US,1697477719
439,chepo,9.1667,-79.1,85.01,73,96,8.77,PA,1697477719
440,astrakhan,46.3497,48.0408,52.9,72,0,8.99,RU,1697477720
441,cidreira,-30.1811,-50.2056,66.45,98,100,3.69,BR,1697477453
442,san luis de la loma,17.2706,-100.8939,86.16,73,85,4.79,MX,1697477720
443,tongchuanshi,35.0806,109.0897,58.14,59,20,5.14,CN,1697477720
444,muisne,0.6,-80.0333,79.88,76,96,9.8,EC,1697477721
445,vallenar,-28.5708,-70.7581,83.37,27,97,8.12,CL,1697477721
446,thaba-tseka,-29.522,28.6084,45.48,87,100,8.59,LS,1697477721
447,usinsk,65.9939,57.5281,36.07,99,95,15.99,RU,1697477721
448,robore,-18.3333,-59.75,100.49,39,20,20.71,BO,1697477721
449,phan rang-thap cham,11.5667,108.9833,77.27,90,100,3.38,VN,1697477722
450,sao vicente,-23.9631,-46.3919,98.78,78,75,6.91,BR,1697477722
451,lyantor,61.6195,72.1555,43.54,96,99,9.51,RU,1697477722
452,puntarenas,9.9763,-84.8384,83.43,78,80,4.47,CR,1697477621
453,itoman,26.1247,127.6694,75.22,64,75,4.61,JP,1697477722
454,concordia,-31.393,-58.0209,80.2,69,94,1.45,AR,1697477723
455,natal,-5.795,-35.2094,86.65,54,20,23.02,BR,1697477654
456,mbanza-ngungu,-5.25,14.8667,76.42,69,100,4.09,CD,1697477723
457,mana,5.6592,-53.7767,87.1,65,94,11.14,GF,1697477723
458,khalkhal,37.6189,48.5258,53.08,59,40,13.58,IR,1697477724
459,mir bachah kot,34.75,69.119,48.45,87,100,3.13,AF,1697477724
460,mao,39.8885,4.2658,66.76,100,20,9.22,ES,1697477724
461,taroa,8.7058,171.2275,82.08,76,17,10.63,MH,1697477724
462,goondiwindi,-28.55,150.3167,55.02,47,0,8.59,AU,1697477724
463,totness,5.8833,-56.3167,87.69,63,87,11.99,SR,1697477725
464,luzilandia,-3.4578,-42.3703,96.12,33,68,4.07,BR,1697477725
465,taoudenni,22.6783,-3.9836,92.08,13,100,9.84,ML,1697477725
466,safotu,-13.4513,-172.4018,81.21,81,74,24.14,WS,1697477725
467,puttalam,8.0362,79.8283,80.1,81,15,11.32,LK,1697477726
468,los llanos de aridane,28.6585,-17.9182,76.75,69,0,3.44,ES,1697477726
469,vidalia,32.2177,-82.4135,64.35,52,75,5.75,US,1697477726
470,bajina basta,43.9708,19.5675,47.68,55,100,2.91,RS,1697477446
471,laguna,38.421,-121.4238,76.96,52,0,3.44,US,1697477472
472,la ronge,55.1001,-105.2842,52.02,62,20,5.75,CA,1697477579
473,hadgaon,19.5,77.6667,74.25,64,92,4.5,IN,1697477727
474,el alto,-4.2714,-81.2147,80.26,74,55,8.34,PE,1697477727
475,puerto carreno,6.189,-67.4859,89.58,66,40,3.44,CO,1697477727
476,general roca,-39.0333,-67.5833,73.06,32,1,8.34,AR,1697477727
477,lesnoy,57.6198,63.0784,48.88,90,48,9.28,RU,1697477728
478,dzuunharaa,48.8523,106.4579,36.25,85,80,1.92,MN,1697477728
479,hammerfest,70.6634,23.6821,36.05,75,40,11.5,NO,1697477728
480,labrador city,52.9463,-66.9114,40.91,65,75,12.66,CA,1697477728
481,preobrazheniye,42.9019,133.9064,42.44,45,0,11.01,RU,1697477729
482,laojunmiao,39.8333,97.7333,41.13,59,100,3.53,CN,1697477729
483,lethbridge,49.7,-112.8186,59.49,58,100,4.61,CA,1697477679
484,el porvenir,13.7617,-87.3458,83.53,84,100,2.3,HN,1697477729
485,kayenta,36.7278,-110.2546,66.67,18,0,3.29,US,1697477730
486,larache,35.1932,-6.1557,71.92,78,99,3.06,MA,1697477730
487,balaklava,44.5,33.6,54.99,58,92,20.13,UA,1697477730
488,inawashiro,37.5667,140.1167,54.77,91,86,6.67,JP,1697477730
489,kurayoshi,35.4333,133.8167,60.87,82,54,2.01,JP,1697477730
490,puerto maldonado,-12.6,-69.1833,90.0,58,75,8.05,PE,1697477731
491,walvis bay,-22.9575,14.5053,59.09,83,8,7.2,NA,1697477731
492,ambon,-3.6954,128.1814,81.88,95,40,4.61,ID,1697477731
493,celestun,20.8667,-90.4,81.7,60,84,16.08,MX,1697477732
494,lycksele,64.5954,18.6735,35.47,80,36,3.44,SE,1697477732
495,police,53.5521,14.5718,43.97,89,53,1.99,PL,1697477732
496,jisr ash shughur,35.8143,36.3206,68.58,80,0,8.19,SY,1697477732
497,belyy yar,53.6039,91.3903,37.29,81,0,11.18,RU,1697477732
498,cide,41.8921,33.0044,57.2,86,100,7.87,TR,1697477733
499,pont rouge,48.8833,-72.0825,53.89,67,88,5.66,CA,1697477733
500,kijang,35.2442,129.2139,55.13,58,0,4.09,KR,1697477733
501,paracuru,-3.41,-39.0306,82.11,61,68,17.29,BR,1697477733
502,howard springs,-12.497,131.047,78.71,86,14,4.03,AU,1697477734
503,inirida,3.8653,-67.9239,77.27,87,100,3.0,CO,1697477734
504,al hada,21.3675,40.2869,69.19,54,22,1.72,SA,1697477734
505,poronaysk,49.2167,143.1167,46.29,88,41,4.21,RU,1697477734
506,bel ombre,-4.6167,55.4167,82.24,78,20,9.22,SC,1697477734
507,sokcho,38.2083,128.5911,57.81,51,0,10.36,KR,1697477735
508,urumqi,43.801,87.6005,47.35,53,0,2.24,CN,1697477735
509,ishinomaki,38.4167,141.3,56.71,64,39,16.89,JP,1697477735
510,ancud,-41.8697,-73.8203,53.73,59,7,6.24,CL,1697477735
511,onverwacht,5.5833,-55.1833,96.98,42,40,5.75,SR,1697477736
512,kendari,-3.945,122.4989,74.08,89,14,2.21,ID,1697477736
513,constantia,44.1833,28.65,47.08,62,2,12.21,RO,1697477646
514,kalevala,65.2,31.1667,35.1,99,100,5.99,RU,1697477736
515,amarillo,35.222,-101.8313,68.04,39,0,8.05,US,1697477662
516,carutapera,-1.195,-46.02,87.26,58,54,11.99,BR,1697477737
517,moissala,8.3404,17.7663,75.45,85,39,3.4,TD,1697477737
518,kilju,40.9642,129.3278,44.6,46,0,5.93,KP,1697477737
519,vernon,50.2581,-119.2691,56.3,87,100,3.44,CA,1697477736
520,sitka,57.0531,-135.33,55.29,67,75,3.44,US,1697477547
521,likasi,-10.9814,26.7333,74.25,64,84,3.18,CD,1697477738
522,kavieng,-2.5744,150.7967,80.49,79,63,2.68,PG,1697477738
523,deqen,29.9618,90.7188,42.08,41,87,3.4,CN,1697477738
524,paramonga,-10.6667,-77.8333,72.3,75,52,10.31,PE,1697477739
525,mount isa,-20.7333,139.5,73.17,20,2,19.57,AU,1697477739
526,port saint john's,-31.6229,29.5448,64.44,86,100,13.18,ZA,1697477739
527,tual,-5.6667,132.75,80.26,82,89,14.2,ID,1697477740
528,ciudad guayana,8.3533,-62.6528,93.13,44,76,2.98,VE,1697477740
529,kill devil hills,36.0307,-75.676,62.98,53,40,10.36,US,1697477592
530,saint-denis,48.9167,2.3333,54.09,54,0,13.8,FR,1697477740
531,alaghsas,17.0187,8.0168,94.89,13,36,16.11,NE,1697477740
532,tirmiz,37.2242,67.2783,57.29,58,0,0.0,UZ,1697477741
533,belinskiy,52.9647,43.4165,55.74,61,56,17.85,RU,1697477741
534,puerto aysen,-45.4,-72.7,49.69,81,85,3.47,CL,1697477476
535,g'azalkent,41.5581,69.7708,54.36,42,21,3.65,UZ,1697477741
536,al bawiti,28.3492,28.8659,74.71,36,0,6.73,EG,1697477741
537,riohacha,11.5444,-72.9072,87.91,74,40,4.61,CO,1697477742
538,islamorada,24.9243,-80.6278,78.8,76,78,4.0,US,1697477742
539,tumaco,1.7986,-78.8156,78.73,86,100,5.37,CO,1697477742
540,whangarei,-35.7317,174.3239,60.17,85,96,6.04,NZ,1697477743
541,mahanoro,-19.9,48.8,75.83,93,57,5.48,MG,1697477743
542,san juan de uraba,8.7592,-76.5297,84.58,75,96,2.73,CO,1697477743
543,manjeshvar,12.7,74.8833,76.39,89,93,2.48,IN,1697477743
544,devils lake,48.1128,-98.8651,57.31,63,0,9.22,US,1697477603
545,aripuana,-9.1667,-60.6333,98.85,31,89,3.13,BR,1697477744
546,fort mcmurray,56.7268,-111.381,53.19,62,0,9.22,CA,1697477451
547,san nicolas guadalupe,19.6125,-100.0333,62.31,50,31,7.56,MX,1697477744
548,yasnogorsk,54.4803,37.6975,45.95,88,100,6.69,RU,1697477744
549,bossangoa,6.4926,17.4552,72.43,94,68,1.39,CF,1697477745
550,coahuayana de hidalgo,18.7,-103.6583,90.14,60,90,3.42,MX,1697477745
551,khorixas,-20.3667,14.9667,71.11,32,18,12.62,NA,1697477745
552,pahrump,36.2083,-115.9839,85.32,12,0,3.44,US,1697477745
553,alvaraes,-3.2208,-64.8042,84.07,47,96,4.74,BR,1697477745
554,pacocha,-17.5833,-71.3333,69.94,68,0,13.8,PE,1697477746
555,ad-damazin,11.7891,34.3592,79.75,71,100,8.57,SD,1697477746
556,ust-tsilma,65.441,52.1498,42.62,81,84,10.0,RU,1697477746
557,metlili chaamba,32.2667,3.6333,85.14,12,0,10.36,DZ,1697477746
558,sheridan,44.8333,-106.9173,74.32,54,0,3.0,US,1697477747
559,alindao,5.0267,21.2088,70.57,96,62,2.66,CF,1697477747
560,faya-largeau,17.9257,19.1043,89.67,16,100,10.49,TD,1697477747
561,edd,13.9297,41.6925,87.93,63,2,10.31,ER,1697477747
562,decazeville,44.5605,2.2509,66.88,70,98,2.84,FR,1697477748
563,al bardiyah,31.7561,25.0865,72.93,74,0,9.95,LY,1697477748
564,homberg,51.0333,9.4,46.62,93,75,1.14,DE,1697477748
565,prince george,53.9166,-122.753,47.64,87,100,10.36,CA,1697477603
566,viedma,-40.8135,-62.9967,60.78,39,0,18.99,AR,1697477748
567,aykhal,66.0,111.5,25.07,94,99,11.01,RU,1697477749
568,kharkhorin,47.1975,102.8238,34.66,45,24,5.5,MN,1697477749
569,nguigmi,14.2495,13.1092,90.72,25,90,6.46,NE,1697477749
570,buala,-8.145,159.5921,79.34,81,98,1.43,SB,1697477749
571,nikolayevsk-on-amure,53.1406,140.73,46.92,92,100,5.59,RU,1697477749
572,tromso,69.6496,18.957,37.42,75,75,2.3,NO,1697477697
573,al muwayh,22.4333,41.7583,80.17,14,0,8.84,SA,1697477750
574,salalah,17.0151,54.0924,80.69,78,0,4.61,OM,1697477750
575,sao gabriel da cachoeira,-0.1303,-67.0892,82.2,74,75,4.61,BR,1697477750
576,art khwajah,37.0857,69.4796,58.64,33,99,1.14,AF,1697477750
577,pathein,16.7833,94.7333,76.84,92,100,1.43,MM,1697477751
578,popondetta,-8.7537,148.2534,72.99,97,100,2.28,PG,1697477751
579,wawarsing,41.759,-74.3574,63.41,63,89,3.49,US,1697477751
580,mo i rana,66.3128,14.1428,37.87,93,75,3.44,NO,1697477751
581,marquette,46.5333,-87.6335,47.25,82,83,7.0,US,1697477751
